{
	"type": "FeatureCollection",
	"collectionName": "dynamicTheme",
	"srs": 8307,
	"geodetic": true,
	"bbox":[-180, -59.4728, 180, 83.6341],
	"attr_names": ["code", "lat", "lon", "name", "city","state","country"],	
	"features":
[
  {
    "type": "Feature","geometry": {"type": "Point","coordinates": [-145.494,-17.3595]},
    "properties": { "code": "AAA",
    "name": "Anaa Airport",
    "city": "Anaa",
    "state": "Tuamotu-Gambier",
    "country": "French Polynesia",
    "woeid": "12512819",
    "tz": "Pacific\/Midway",
    "type": "Airports",
    "runway_length": "4921",
    "elev": "7",
    "icao": "NTGA",
    "direct_flights": "2",
    "carriers": "1"
    }
},
  {
    "type": "Feature","geometry": {"type": "Point","coordinates": [7.8103,36.8236]},
    "properties": { "code": "AAE",
    "name": "El Mellah Airport",
    "city": "El Tarf",
    "state": "Annaba",
    "country": "Algeria",
    "woeid": "12510325",
    "tz": "Africa\/Algiers",
    "type": "Airports",
    "runway_length": "9843",
    "elev": "16",
    "icao": "DABB",
    "direct_flights": "6",
    "carriers": "2"
    }
},
  {
    "type": "Feature","geometry": {"type": "Point","coordinates": [9.85606,57.0952]},
    "properties": { "code": "AAL",
    "name": "Aalborg Airport",
    "city": "Norresundby",
    "state": "Nordjylland",
    "country": "Denmark",
    "woeid": "12512587",
    "tz": "Europe\/Copenhagen",
    "type": "Airports",
    "runway_length": "8700",
    "elev": "10",
    "icao": "EKYT",
    "direct_flights": "7",
    "carriers": "10"
    }
},
  {
    "type": "Feature","geometry": {"type": "Point","coordinates": [31.5333,-24.8]},
    "properties": { "code": "AAM",
    "name": "Mala Mala",
    "city": "Mala Mala",
    "state": "",
    "country": "South Africa",
    "woeid": "55921381",
    "tz": "Africa\/Johannesburg",
    "type": "Airports",
    "runway_length": "4420",
    "elev": "1200",
    "icao": "FAMD",
    "direct_flights": "1",
    "carriers": "1"
    }
},
  {
    "type": "Feature","geometry": {"type": "Point","coordinates": [55.75,24.25]},
    "properties": { "code": "AAN",
    "name": "Al Ain Airport",
    "city": "Ayn al Faydah",
    "state": "Abu Dhabi",
    "country": "United Arab Emirates",
    "woeid": "12523371",
    "tz": "Asia\/Dubai",
    "type": "Airports",
    "runway_length": null,
    "elev": null,
    "icao": "OMAL",
    "direct_flights": "12",
    "carriers": "9"
    }
},
  {
    "type": "Feature","geometry": {"type": "Point","coordinates": [37.3167,44.9]},
    "properties": { "code": "AAQ",
    "name": "Olkhovka Airport",
    "city": "Novorossiysk",
    "state": "Krasnodarskiy Kray",
    "country": "Russia",
    "woeid": "12516605",
    "tz": "Europe\/Moscow",
    "type": "Airports",
    "runway_length": null,
    "elev": null,
    "icao": "URKA",
    "direct_flights": "24",
    "carriers": "15"
    }
},
  {
    "type": "Feature","geometry": {"type": "Point","coordinates": [10.6154,56.3088]},
    "properties": { "code": "AAR",
    "name": "Tirstrup Airport",
    "city": "Kolind",
    "state": "Midtjylland",
    "country": "Denmark",
    "woeid": "12512604",
    "tz": "Europe\/Copenhagen",
    "type": "Airports",
    "runway_length": "9127",
    "elev": "81",
    "icao": "EKAH",
    "direct_flights": "9",
    "carriers": "8"
    }
},
  {
    "type": "Feature","geometry": {"type": "Point","coordinates": [88.0845,47.7406]},
    "properties": { "code": "AAT",
    "name": "Altay Airport",
    "city": "Altay",
    "state": "Xinjiang",
    "country": "China",
    "woeid": "12511977",
    "tz": "Asia\/Urumqi",
    "type": "Airports",
    "runway_length": null,
    "elev": null,
    "icao": "ZWAT",
    "direct_flights": "1",
    "carriers": "1"
    }
},
  {
    "type": "Feature","geometry": {"type": "Point","coordinates": [-46.9653,-19.5603]},
    "properties": { "code": "AAX",
    "name": "Romeu Zuma Airport",
    "city": "Arax\u00e1",
    "state": "Minas Gerais",
    "country": "Brazil",
    "woeid": "12511034",
    "tz": "America\/Sao_Paulo",
    "type": "Airports",
    "runway_length": "6230",
    "elev": "3274",
    "icao": "SBAX",
    "direct_flights": "2",
    "carriers": "1"
    }
},
  {
    "type": "Feature","geometry": {"type": "Point","coordinates": [52.1694,16.1947]},
    "properties": { "code": "AAY",
    "name": "Al Gaidah Airport",
    "city": "Al Ghaydah",
    "state": "Hadramawt",
    "country": "Yemen",
    "woeid": "12523000",
    "tz": "Asia\/Aden",
    "type": "Airports",
    "runway_length": "8858",
    "elev": "98",
    "icao": "OYGD",
    "direct_flights": "3",
    "carriers": "2"
    }
},
  {
    "type": "Feature","geometry": {"type": "Point","coordinates": [91.4333,53.7167]},
    "properties": { "code": "ABA",
    "name": "Abakan",
    "city": "Abakan",
    "state": "Khakasiya",
    "country": "Russian Federation",
    "woeid": "2119917",
    "tz": "Asia\/Krasnoyarsk",
    "type": "Airports",
    "runway_length": null,
    "elev": null,
    "icao": "UNAA",
    "direct_flights": "4",
    "carriers": "3"
    }
},
  {
    "type": "Feature","geometry": {"type": "Point","coordinates": [-1.85,38.9833]},
    "properties": { "code": "ABC",
    "name": "Los Llanos",
    "city": "Albacete",
    "state": "Castilla-la Mancha",
    "country": "Spain",
    "woeid": "20081243",
    "tz": "Europe\/Madrid",
    "type": "Airports",
    "runway_length": null,
    "elev": null,
    "icao": "LEAB",
    "direct_flights": "3",
    "carriers": "2"
    }
},
  {
    "type": "Feature","geometry": {"type": "Point","coordinates": [48.3032,30.3374]},
    "properties": { "code": "ABD",
    "name": "",
    "city": "Abadan",
    "state": "Khuzestan",
    "country": "Iran",
    "woeid": "2254271",
    "tz": "Asia\/Tehran",
    "type": "Airports",
    "runway_length": "10170",
    "elev": "10",
    "icao": "OIAA",
    "direct_flights": "5",
    "carriers": "3"
    }
},
  {
    "type": "Feature","geometry": {"type": "Point","coordinates": [-75.4342,40.6514]},
    "properties": { "code": "ABE",
    "name": "Lehigh Valley International Airport",
    "city": "Allentown",
    "state": "Pennsylvania",
    "country": "United States",
    "woeid": "12518581",
    "tz": "America\/New_York",
    "type": "Airports",
    "runway_length": null,
    "elev": null,
    "icao": "KABE",
    "direct_flights": "14",
    "carriers": "11"
    }
},
  {
    "type": "Feature","geometry": {"type": "Point","coordinates": [-99.6803,32.4164]},
    "properties": { "code": "ABI",
    "name": "Abilene Regional Airport",
    "city": "Abilene",
    "state": "Texas",
    "country": "United States",
    "woeid": "12518518",
    "tz": "America\/Chicago",
    "type": "Airports",
    "runway_length": "7199",
    "elev": "1790",
    "icao": "KABI",
    "direct_flights": "2",
    "carriers": "4"
    }
},
  {
    "type": "Feature","geometry": {"type": "Point","coordinates": [-3.9292,5.2556]},
    "properties": { "code": "ABJ",
    "name": "Abidjan Port Bouet Airport",
    "city": "Abidjan",
    "state": "Abidjan",
    "country": "Ivory Coast",
    "woeid": "12513870",
    "tz": "Africa\/Abidjan",
    "type": "Airports",
    "runway_length": "8858",
    "elev": "20",
    "icao": "DIAP",
    "direct_flights": "22",
    "carriers": "29"
    }
},
  {
    "type": "Feature","geometry": {"type": "Point","coordinates": [44.2797,6.73719]},
    "properties": { "code": "ABK",
    "name": "Kabri Dar",
    "city": "Kabri Dar",
    "state": "Ogaden",
    "country": "Ethiopia",
    "woeid": "1317686",
    "tz": "Africa\/Addis_Ababa",
    "type": "Airports",
    "runway_length": "10935",
    "elev": "1800",
    "icao": "HAKD",
    "direct_flights": "1",
    "carriers": "1"
    }
},
  {
    "type": "Feature","geometry": {"type": "Point","coordinates": [-157.854,67.1058]},
    "properties": { "code": "ABL",
    "name": "Ambler Airport",
    "city": "Kiana",
    "state": "Alaska",
    "country": "United States",
    "woeid": "12518600",
    "tz": "America\/Anchorage",
    "type": "Airports",
    "runway_length": "2600",
    "elev": "289",
    "icao": "",
    "direct_flights": "2",
    "carriers": "3"
    }
},
  {
    "type": "Feature","geometry": {"type": "Point","coordinates": [142.453,-10.9438]},
    "properties": { "code": "ABM",
    "name": "Bamaga Airport",
    "city": "Seisia",
    "state": "Queensland",
    "country": "Australia",
    "woeid": "12510598",
    "tz": "Australia\/Brisbane",
    "type": "Airports",
    "runway_length": "6700",
    "elev": "49",
    "icao": "YBAM",
    "direct_flights": "1",
    "carriers": "1"
    }
},
  {
    "type": "Feature","geometry": {"type": "Point","coordinates": [-106.625,35.0494]},
    "properties": { "code": "ABQ",
    "name": "Albuquerque International Airport",
    "city": "Albuquerque",
    "state": "New Mexico",
    "country": "United States",
    "woeid": "12518564",
    "tz": "America\/Denver",
    "type": "Airports",
    "runway_length": "13375",
    "elev": "5352",
    "icao": "KABQ",
    "direct_flights": "41",
    "carriers": "25"
    }
},
  {
    "type": "Feature","geometry": {"type": "Point","coordinates": [-98.4189,45.4536]},
    "properties": { "code": "ABR",
    "name": "Aberdeen Regional Airport",
    "city": "Aberdeen",
    "state": "South Dakota",
    "country": "United States",
    "woeid": "12518514",
    "tz": "America\/Chicago",
    "type": "Airports",
    "runway_length": "6904",
    "elev": "1301",
    "icao": "KABR",
    "direct_flights": "3",
    "carriers": "5"
    }
},
  {
    "type": "Feature","geometry": {"type": "Point","coordinates": [31.6125,22.3722]},
    "properties": { "code": "ABS",
    "name": "Abu Simbel Airport",
    "city": "Abu Simbel",
    "state": "Aswan",
    "country": "Egypt",
    "woeid": "12512656",
    "tz": "Africa\/Cairo",
    "type": "Airports",
    "runway_length": "8202",
    "elev": "615",
    "icao": "HEBL",
    "direct_flights": "1",
    "carriers": "1"
    }
},
  {
    "type": "Feature","geometry": {"type": "Point","coordinates": [41.6342,20.2961]},
    "properties": { "code": "ABT",
    "name": "Al Baha Airport",
    "city": "Al Aqiq",
    "state": "Al Baha",
    "country": "Saudi Arabia",
    "woeid": "12517321",
    "tz": "Asia\/Riyadh",
    "type": "Airports",
    "runway_length": "10991",
    "elev": "5486",
    "icao": "OEBA",
    "direct_flights": "3",
    "carriers": "1"
    }
},
  {
    "type": "Feature","geometry": {"type": "Point","coordinates": [7.2661,9.0056]},
    "properties": { "code": "ABV",
    "name": "Abuja International Airport",
    "city": "Gwagwa",
    "state": "Abuja Capital Territory",
    "country": "Nigeria",
    "woeid": "12515056",
    "tz": "Africa\/Lagos",
    "type": "Airports",
    "runway_length": "11808",
    "elev": "1122",
    "icao": "DNAA",
    "direct_flights": "9",
    "carriers": "12"
    }
},
  {
    "type": "Feature","geometry": {"type": "Point","coordinates": [146.956,-36.0678]},
    "properties": { "code": "ABX",
    "name": "Albury Airport",
    "city": "Albury",
    "state": "New South Wales",
    "country": "Australia",
    "woeid": "12510583",
    "tz": "Australia\/Sydney",
    "type": "Airports",
    "runway_length": "6234",
    "elev": "539",
    "icao": "YMAY",
    "direct_flights": "3",
    "carriers": "5"
    }
},
  {
    "type": "Feature","geometry": {"type": "Point","coordinates": [-84.1867,31.5328]},
    "properties": { "code": "ABY",
    "name": "Southwest Georgia Regional Airport",
    "city": "Albany",
    "state": "Georgia",
    "country": "United States",
    "woeid": "12521922",
    "tz": "America\/New_York",
    "type": "Airports",
    "runway_length": "6601",
    "elev": "197",
    "icao": "KABY",
    "direct_flights": "1",
    "carriers": "2"
    }
},
  {
    "type": "Feature","geometry": {"type": "Point","coordinates": [-2.20373,57.2004]},
    "properties": { "code": "ABZ",
    "name": "Aberdeen Dyce International Airport",
    "city": "Aberdeen",
    "state": "Scotland",
    "country": "United Kingdom",
    "woeid": "22450858",
    "tz": "Europe\/London",
    "type": "Airports",
    "runway_length": "6002",
    "elev": "215",
    "icao": "EGPD",
    "direct_flights": "37",
    "carriers": "35"
    }
},
  {
    "type": "Feature","geometry": {"type": "Point","coordinates": [-99.7536,16.7561]},
    "properties": { "code": "ACA",
    "name": "General Juan N Alvarez International Airport",
    "city": "Acapulco",
    "state": "Guerrero",
    "country": "Mexico",
    "woeid": "12514882",
    "tz": "America\/Mexico_City",
    "type": "Airports",
    "runway_length": null,
    "elev": null,
    "icao": "MMAA",
    "direct_flights": "12",
    "carriers": "17"
    }
},
  {
    "type": "Feature","geometry": {"type": "Point","coordinates": [-0.17,5.5964]},
    "properties": { "code": "ACC",
    "name": "Kotoka International Airport",
    "city": "Accra",
    "state": "Greater Accra",
    "country": "Ghana",
    "woeid": "12513022",
    "tz": "Africa\/Accra",
    "type": "Airports",
    "runway_length": "9800",
    "elev": "205",
    "icao": "DGAA",
    "direct_flights": "25",
    "carriers": "30"
    }
},
  {
    "type": "Feature","geometry": {"type": "Point","coordinates": [-13.6085,28.9521]},
    "properties": { "code": "ACE",
    "name": "Arrecife Airport",
    "city": "San Bartolom\u00e9",
    "state": "Canary Islands",
    "country": "Spain",
    "woeid": "12523048",
    "tz": "Atlantic\/Canary",
    "type": "Airports",
    "runway_length": "7874",
    "elev": "46",
    "icao": "GCRR",
    "direct_flights": "49",
    "carriers": "28"
    }
},
  {
    "type": "Feature","geometry": {"type": "Point","coordinates": [9.55376,47.4887]},
    "properties": { "code": "ACH",
    "name": "Altenrhein Airport",
    "city": "Altenrhein",
    "state": "Canton of St. Gallen",
    "country": "Switzerland",
    "woeid": "23344872",
    "tz": "Europe\/Zurich",
    "type": "Airports",
    "runway_length": "4350",
    "elev": "1306",
    "icao": "LSZR",
    "direct_flights": "1",
    "carriers": "1"
    }
},
  {
    "type": "Feature","geometry": {"type": "Point","coordinates": [-2.22089,49.7134]},
    "properties": { "code": "ACI",
    "name": "The Blaye Airport",
    "city": "St. Peter Port",
    "state": "Channel Islands",
    "country": "United Kingdom",
    "woeid": "12523974",
    "tz": "Europe\/Jersey",
    "type": "Airports",
    "runway_length": "2887",
    "elev": "291",
    "icao": "EGJA",
    "direct_flights": "2",
    "carriers": "1"
    }
},
  {
    "type": "Feature","geometry": {"type": "Point","coordinates": [-70.0649,41.2568]},
    "properties": { "code": "ACK",
    "name": "Nantucket Memorial Airport",
    "city": "Nantucket",
    "state": "Massachusetts",
    "country": "United States",
    "woeid": "12521076",
    "tz": "America\/New_York",
    "type": "Airports",
    "runway_length": "6303",
    "elev": "48",
    "icao": "KACK",
    "direct_flights": "9",
    "carriers": "6"
    }
},
  {
    "type": "Feature","geometry": {"type": "Point","coordinates": [-151.696,68.1609]},
    "properties": { "code": "ACP",
    "name": "Sahand Airport",
    "city": "Sahand",
    "state": "",
    "country": "Iran",
    "woeid": "23424851",
    "tz": "Asia\/Tehran",
    "type": "Airports",
    "runway_length": null,
    "elev": null,
    "icao": "KACP",
    "direct_flights": "1",
    "carriers": "1"
    }
},
  {
    "type": "Feature","geometry": {"type": "Point","coordinates": [18.0064,47.7006]},
    "properties": { "code": "ACS",
    "name": "",
    "city": "Achinsk",
    "state": "Krasnoyarskiy Kray",
    "country": "Russia",
    "woeid": "1979926",
    "tz": "Asia\/Krasnoyarsk",
    "type": "Airports",
    "runway_length": null,
    "elev": null,
    "icao": "",
    "direct_flights": "0",
    "carriers": "0"
    }
},
  {
    "type": "Feature","geometry": {"type": "Point","coordinates": [-97.2234,31.609]},
    "properties": { "code": "ACT",
    "name": "Waco Regional Airport",
    "city": "Waco",
    "state": "Texas",
    "country": "United States",
    "woeid": "12522299",
    "tz": "America\/Chicago",
    "type": "Airports",
    "runway_length": "6597",
    "elev": "516",
    "icao": "KACT",
    "direct_flights": "2",
    "carriers": "2"
    }
},
  {
    "type": "Feature","geometry": {"type": "Point","coordinates": [-124.108,40.9698]},
    "properties": { "code": "ACV",
    "name": "Arcata Airport",
    "city": "Mckinleyville",
    "state": "California",
    "country": "United States",
    "woeid": "12518649",
    "tz": "America\/Los_Angeles",
    "type": "Airports",
    "runway_length": "5998",
    "elev": "218",
    "icao": "KACV",
    "direct_flights": "6",
    "carriers": "7"
    }
},
  {
    "type": "Feature","geometry": {"type": "Point","coordinates": [104.89,25.0887]},
    "properties": { "code": "ACX",
    "name": "Xingyi",
    "city": "Xingyi",
    "state": "Guizhou",
    "country": "China",
    "woeid": "2146722",
    "tz": "Asia\/Chongqing",
    "type": "Airports",
    "runway_length": null,
    "elev": null,
    "icao": "",
    "direct_flights": "2",
    "carriers": "2"
    }
},
  {
    "type": "Feature","geometry": {"type": "Point","coordinates": [-74.5716,39.4512]},
    "properties": { "code": "ACY",
    "name": "Atlantic City International Airport",
    "city": "Egg Harbor City",
    "state": "New Jersey",
    "country": "United States",
    "woeid": "12518689",
    "tz": "America\/New_York",
    "type": "Airports",
    "runway_length": "10000",
    "elev": "76",
    "icao": "KACY",
    "direct_flights": "6",
    "carriers": "1"
    }
},
  {
    "type": "Feature","geometry": {"type": "Point","coordinates": [61.4962,31.0385]},
    "properties": { "code": "ACZ",
    "name": "Zabol A\/P",
    "city": "Zabol",
    "state": "Sistan va Baluchestan",
    "country": "Iran",
    "woeid": "2255305",
    "tz": "Asia\/Tehran",
    "type": "Airports",
    "runway_length": null,
    "elev": null,
    "icao": "KACZ",
    "direct_flights": "1",
    "carriers": "1"
    }
},
  {
    "type": "Feature","geometry": {"type": "Point","coordinates": [35.2803,36.9811]},
    "properties": { "code": "ADA",
    "name": "Sakirpasa Airport",
    "city": "Adana",
    "state": "Adana",
    "country": "Turkey",
    "woeid": "12517911",
    "tz": "Europe\/Istanbul",
    "type": "Airports",
    "runway_length": "9022",
    "elev": "64",
    "icao": "LTAF",
    "direct_flights": "14",
    "carriers": "4"
    }
},
  {
    "type": "Feature","geometry": {"type": "Point","coordinates": [27.1603,38.32]},
    "properties": { "code": "ADB",
    "name": "Gaziemir Airport",
    "city": "Azmir",
    "state": "\u0130zmir",
    "country": "Turkey",
    "woeid": "12517893",
    "tz": "Europe\/Istanbul",
    "type": "Airports",
    "runway_length": "7700",
    "elev": "412",
    "icao": "LTBJ",
    "direct_flights": "37",
    "carriers": "10"
    }
},
  {
    "type": "Feature","geometry": {"type": "Point","coordinates": [38.8011,8.9783]},
    "properties": { "code": "ADD",
    "name": "Bole International Airport",
    "city": "Addis Ababa",
    "state": "Debub Shewa",
    "country": "Ethiopia",
    "woeid": "12512758",
    "tz": "Africa\/Addis_Ababa",
    "type": "Airports",
    "runway_length": "12139",
    "elev": "7625",
    "icao": "HAAB",
    "direct_flights": "43",
    "carriers": "25"
    }
},
  {
    "type": "Feature","geometry": {"type": "Point","coordinates": [45.0306,12.8278]},
    "properties": { "code": "ADE",
    "name": "Aden International Airport",
    "city": "Ash Shaykh Uthman",
    "state": "`Adan",
    "country": "Yemen",
    "woeid": "12522998",
    "tz": "Asia\/Aden",
    "type": "Airports",
    "runway_length": "10270",
    "elev": "12",
    "icao": "OYAA",
    "direct_flights": "15",
    "carriers": "8"
    }
},
  {
    "type": "Feature","geometry": {"type": "Point","coordinates": [38.3357,37.8099]},
    "properties": { "code": "ADF",
    "name": "Adiyaman Airport",
    "city": "Adiyaman",
    "state": "Ad\u0131yaman",
    "country": "Turkey",
    "woeid": "2347259",
    "tz": "Europe\/Istanbul",
    "type": "Airports",
    "runway_length": null,
    "elev": null,
    "icao": "LTAG",
    "direct_flights": "2",
    "carriers": "1"
    }
},
  {
    "type": "Feature","geometry": {"type": "Point","coordinates": [35.9822,31.973]},
    "properties": { "code": "ADJ",
    "name": "Al Matar Airport",
    "city": "Amman",
    "state": "'Amman",
    "country": "Jordan",
    "woeid": "23388321",
    "tz": "Asia\/Amman",
    "type": "Airports",
    "runway_length": null,
    "elev": null,
    "icao": "OJAM",
    "direct_flights": "2",
    "carriers": "2"
    }
},
  {
    "type": "Feature","geometry": {"type": "Point","coordinates": [-176.639,51.88]},
    "properties": { "code": "ADK",
    "name": "Adak Airport",
    "city": "Adak",
    "state": "Alaska",
    "country": "United States",
    "woeid": "12518524",
    "tz": "America\/Adak",
    "type": "Airports",
    "runway_length": "7794",
    "elev": "19",
    "icao": "PADK",
    "direct_flights": "1",
    "carriers": "1"
    }
},
  {
    "type": "Feature","geometry": {"type": "Point","coordinates": [138.529,-34.9464]},
    "properties": { "code": "ADL",
    "name": "Adelaide International Airport",
    "city": "Adelaide",
    "state": "South Australia",
    "country": "Australia",
    "woeid": "1107231",
    "tz": "Australia\/Adelaide",
    "type": "Airports",
    "runway_length": "10171",
    "elev": "20",
    "icao": "YPAD",
    "direct_flights": "24",
    "carriers": "20"
    }
},
  {
    "type": "Feature","geometry": {"type": "Point","coordinates": [-152.512,57.7545]},
    "properties": { "code": "ADQ",
    "name": "Kodiak Airport",
    "city": "Kodiak",
    "state": "Alaska",
    "country": "United States",
    "woeid": "12520492",
    "tz": "America\/Anchorage",
    "type": "Airports",
    "runway_length": "7548",
    "elev": "73",
    "icao": "PADQ",
    "direct_flights": "12",
    "carriers": "7"
    }
},
  {
    "type": "Feature","geometry": {"type": "Point","coordinates": [48.2951,38.2465]},
    "properties": { "code": "ADU",
    "name": "Ardabil Airport",
    "city": "Ardabil",
    "state": "Ardabil",
    "country": "Iran",
    "woeid": "2254335",
    "tz": "Asia\/Tehran",
    "type": "Airports",
    "runway_length": null,
    "elev": null,
    "icao": "OITL",
    "direct_flights": "1",
    "carriers": "2"
    }
},
  {
    "type": "Feature","geometry": {"type": "Point","coordinates": [-2.86117,56.377]},
    "properties": { "code": "ADX",
    "name": "Leuchars Airport",
    "city": "St. Andrews",
    "state": "Scotland",
    "country": "United Kingdom",
    "woeid": "12518118",
    "tz": "Europe\/London",
    "type": "Airports",
    "runway_length": "8707",
    "elev": "38",
    "icao": "EGQL",
    "direct_flights": "2",
    "carriers": "1"
    }
},
  {
    "type": "Feature","geometry": {"type": "Point","coordinates": [-81.7092,12.5811]},
    "properties": { "code": "ADZ",
    "name": "Sesquicentenario Airport",
    "city": "San Andr\u00e9s",
    "state": "San Andres y Providencia",
    "country": "Colombia",
    "woeid": "12512417",
    "tz": "America\/Bogota",
    "type": "Airports",
    "runway_length": "7808",
    "elev": "19",
    "icao": "SKSP",
    "direct_flights": "7",
    "carriers": "3"
    }
},
  {
    "type": "Feature","geometry": {"type": "Point","coordinates": [20.8472,13.8486]},
    "properties": { "code": "AEH",
    "name": "Abeche Airport",
    "city": "Ab\u00e9ch\u00e9",
    "state": "Ouaddai",
    "country": "Chad",
    "woeid": "12511930",
    "tz": "Africa\/Ndjamena",
    "type": "Airports",
    "runway_length": "5905",
    "elev": "1788",
    "icao": "FTTC",
    "direct_flights": "1",
    "carriers": "1"
    }
},
  {
    "type": "Feature","geometry": {"type": "Point","coordinates": [-58.4113,-34.5617]},
    "properties": { "code": "AEP",
    "name": "Aeroparque Jorge Newbery",
    "city": "Buenos Aires",
    "state": "Ciudad de Buenos Aires",
    "country": "Argentina",
    "woeid": "23388199",
    "tz": "America\/Buenos_Aires",
    "type": "Airports",
    "runway_length": "6890",
    "elev": "20",
    "icao": "SABE",
    "direct_flights": "31",
    "carriers": "4"
    }
},
  {
    "type": "Feature","geometry": {"type": "Point","coordinates": [39.9552,43.447]},
    "properties": { "code": "AER",
    "name": "Adler Airport",
    "city": "Sochi",
    "state": "Krasnodarskiy Kray",
    "country": "Russia",
    "woeid": "12515677",
    "tz": "Europe\/Moscow",
    "type": "Airports",
    "runway_length": null,
    "elev": null,
    "icao": "URSS",
    "direct_flights": "45",
    "carriers": "31"
    }
},
  {
    "type": "Feature","geometry": {"type": "Point","coordinates": [6.11129,62.5607]},
    "properties": { "code": "AES",
    "name": "Vigra Airport",
    "city": "Vigra",
    "state": "More og Romsdal",
    "country": "Norway",
    "woeid": "12515129",
    "tz": "Europe\/Oslo",
    "type": "Airports",
    "runway_length": "5249",
    "elev": "71",
    "icao": "ENAL",
    "direct_flights": "6",
    "carriers": "2"
    }
},
  {
    "type": "Feature","geometry": {"type": "Point","coordinates": [-152.65,66.55]},
    "properties": { "code": "AET",
    "name": "Allakaket Airport",
    "city": "Allakaket",
    "state": "Alaska",
    "country": "United States",
    "woeid": "12524551",
    "tz": "America\/Anchorage",
    "type": "Airports",
    "runway_length": "3000",
    "elev": "350",
    "icao": "",
    "direct_flights": "4",
    "carriers": "4"
    }
},
  {
    "type": "Feature","geometry": {"type": "Point","coordinates": [-92.5417,31.323]},
    "properties": { "code": "AEX",
    "name": "Alexandria International Airport",
    "city": "Alexandria",
    "state": "Louisiana",
    "country": "United States",
    "woeid": "12519648",
    "tz": "America\/Chicago",
    "type": "Airports",
    "runway_length": null,
    "elev": null,
    "icao": "KAEX",
    "direct_flights": "5",
    "carriers": "7"
    }
},
  {
    "type": "Feature","geometry": {"type": "Point","coordinates": [-18.0923,65.6561]},
    "properties": { "code": "AEY",
    "name": "Akureyri Airport",
    "city": "Akureyri",
    "state": "Akureyri",
    "country": "Iceland",
    "woeid": "12513442",
    "tz": "Atlantic\/Reykjavik",
    "type": "Airports",
    "runway_length": "6365",
    "elev": "6",
    "icao": "BIAR",
    "direct_flights": "4",
    "carriers": "1"
    }
},
  {
    "type": "Feature","geometry": {"type": "Point","coordinates": [-68.4028,-34.5886]},
    "properties": { "code": "AFA",
    "name": "San Rafael Airport",
    "city": "San Rafael",
    "state": "Mendoza",
    "country": "Argentina",
    "woeid": "12510556",
    "tz": "America\/Buenos_Aires",
    "type": "Airports",
    "runway_length": "7513",
    "elev": "2444",
    "icao": "SAMR",
    "direct_flights": "2",
    "carriers": "1"
    }
},
  {
    "type": "Feature","geometry": {"type": "Point","coordinates": [-56.1044,-9.8661]},
    "properties": { "code": "AFL",
    "name": "Alta Floresta Airport",
    "city": "Alta Floresta",
    "state": "Mato Grosso",
    "country": "Brazil",
    "woeid": "12511017",
    "tz": "America\/Campo_Grande",
    "type": "Airports",
    "runway_length": "5249",
    "elev": "288",
    "icao": "SBAT",
    "direct_flights": "2",
    "carriers": "2"
    }
},
  {
    "type": "Feature","geometry": {"type": "Point","coordinates": [64.2331,41.6136]},
    "properties": { "code": "AFS",
    "name": "Zarafshan Airport",
    "city": "Zarafshan",
    "state": "Nawoiy",
    "country": "Uzbekistan",
    "woeid": "2272667",
    "tz": "Asia\/Samarkand",
    "type": "Airports",
    "runway_length": null,
    "elev": null,
    "icao": "",
    "direct_flights": "1",
    "carriers": "1"
    }
},
  {
    "type": "Feature","geometry": {"type": "Point","coordinates": [160.95,-9.18333]},
    "properties": { "code": "AFT",
    "name": "Afutara Aerodrome",
    "city": "Afutara",
    "state": "Malaita",
    "country": "Solomon Islands",
    "woeid": "1020505",
    "tz": "Pacific\/Guadalcanal",
    "type": "Airports",
    "runway_length": null,
    "elev": null,
    "icao": "",
    "direct_flights": "1",
    "carriers": "1"
    }
},
  {
    "type": "Feature","geometry": {"type": "Point","coordinates": [57.7094,36.1903]},
    "properties": { "code": "AFZ",
    "name": "Sabzevar Airport",
    "city": "Sabzevar",
    "state": "Khorasan",
    "country": "Iran",
    "woeid": "12513753",
    "tz": "Asia\/Tehran",
    "type": "Airports",
    "runway_length": "10428",
    "elev": "3010",
    "icao": "",
    "direct_flights": "1",
    "carriers": "1"
    }
},
  {
    "type": "Feature","geometry": {"type": "Point","coordinates": [-9.55,30.3833]},
    "properties": { "code": "AGA",
    "name": "Almassira Airport",
    "city": "Agadir",
    "state": "Agadir",
    "country": "Morocco",
    "woeid": "12523043",
    "tz": "Africa\/Casablanca",
    "type": "Airports",
    "runway_length": "9547",
    "elev": "88",
    "icao": "GMAD",
    "direct_flights": "15",
    "carriers": "16"
    }
},
  {
    "type": "Feature","geometry": {"type": "Point","coordinates": [0.59223,44.1736]},
    "properties": { "code": "AGF",
    "name": "La Garenne Airport",
    "city": "Laplume",
    "state": "Aquitaine",
    "country": "France",
    "woeid": "12512903",
    "tz": "Europe\/Paris",
    "type": "Airports",
    "runway_length": "7103",
    "elev": "203",
    "icao": "LFBA",
    "direct_flights": "1",
    "carriers": "1"
    }
},
  {
    "type": "Feature","geometry": {"type": "Point","coordinates": [12.8675,56.2873]},
    "properties": { "code": "AGH",
    "name": "Angelholm Airport",
    "city": "Angelholm",
    "state": "Skane",
    "country": "Sweden",
    "woeid": "23319131",
    "tz": "Europe\/Stockholm",
    "type": "Airports",
    "runway_length": "6562",
    "elev": "65",
    "icao": "ESTA",
    "direct_flights": "4",
    "carriers": "3"
    }
},
  {
    "type": "Feature","geometry": {"type": "Point","coordinates": [149.15,-9.33333]},
    "properties": { "code": "AGL",
    "name": "Wanigela",
    "city": "Wanigela",
    "state": "Northern",
    "country": "Papua New Guinea",
    "woeid": "1061994",
    "tz": "Pacific\/Port_Moresby",
    "type": "Airports",
    "runway_length": "3280",
    "elev": "50",
    "icao": "",
    "direct_flights": "1",
    "carriers": "1"
    }
},
  {
    "type": "Feature","geometry": {"type": "Point","coordinates": [-37.6667,65.6667]},
    "properties": { "code": "AGM",
    "name": "Angmagssalik Airport",
    "city": "Angmassalik",
    "state": "Ostgronland",
    "country": "Greenland",
    "woeid": "12523853",
    "tz": "America\/Godthab",
    "type": "Airports",
    "runway_length": null,
    "elev": null,
    "icao": "BGAM",
    "direct_flights": "1",
    "carriers": "1"
    }
},
  {
    "type": "Feature","geometry": {"type": "Point","coordinates": [-134.577,57.4996]},
    "properties": { "code": "AGN",
    "name": "Angoon Airport",
    "city": "Angoon",
    "state": "Alaska",
    "country": "United States",
    "woeid": "12524552",
    "tz": "America\/Anchorage",
    "type": "Airports",
    "runway_length": null,
    "elev": "1",
    "icao": "PAGN",
    "direct_flights": "1",
    "carriers": "1"
    }
},
  {
    "type": "Feature","geometry": {"type": "Point","coordinates": [-4.49298,36.6749]},
    "properties": { "code": "AGP",
    "name": "Malaga Airport",
    "city": "Malaga",
    "state": "Andalucia",
    "country": "Spain",
    "woeid": "23232917",
    "tz": "Europe\/Madrid",
    "type": "Airports",
    "runway_length": "10500",
    "elev": "52",
    "icao": "LEMG",
    "direct_flights": "106",
    "carriers": "59"
    }
},
  {
    "type": "Feature","geometry": {"type": "Point","coordinates": [77.9788,27.1632]},
    "properties": { "code": "AGR",
    "name": "Agra Airport",
    "city": "Agra",
    "state": "Uttar Pradesh",
    "country": "India",
    "woeid": "12513528",
    "tz": "Asia\/Kolkata",
    "type": "Airports",
    "runway_length": "9000",
    "elev": "551",
    "icao": "VIAG",
    "direct_flights": "2",
    "carriers": "1"
    }
},
  {
    "type": "Feature","geometry": {"type": "Point","coordinates": [-81.9732,33.3735]},
    "properties": { "code": "AGS",
    "name": "Bush Field Airport",
    "city": "Augusta",
    "state": "Georgia",
    "country": "United States",
    "woeid": "12518987",
    "tz": "America\/New_York",
    "type": "Airports",
    "runway_length": "8001",
    "elev": "145",
    "icao": "KAGS",
    "direct_flights": "2",
    "carriers": "8"
    }
},
  {
    "type": "Feature","geometry": {"type": "Point","coordinates": [-54.6226,-25.5266]},
    "properties": { "code": "AGT",
    "name": "Alejo Garcia Airport",
    "city": "Presidente Franco",
    "state": "Alto Paran\u00e1",
    "country": "Paraguay",
    "woeid": "12523540",
    "tz": "America\/Asuncion",
    "type": "Airports",
    "runway_length": null,
    "elev": null,
    "icao": "SGES",
    "direct_flights": "3",
    "carriers": "4"
    }
},
  {
    "type": "Feature","geometry": {"type": "Point","coordinates": [-102.317,21.7047]},
    "properties": { "code": "AGU",
    "name": "Aguascalientes Airport",
    "city": "Aguascalientes",
    "state": "Aguascalientes",
    "country": "Mexico",
    "woeid": "12514821",
    "tz": "America\/Mexico_City",
    "type": "Airports",
    "runway_length": "4921",
    "elev": "6112",
    "icao": "MMAS",
    "direct_flights": "8",
    "carriers": "11"
    }
},
  {
    "type": "Feature","geometry": {"type": "Point","coordinates": [-69.2367,9.55194]},
    "properties": { "code": "AGV",
    "name": "Acarigua",
    "city": "Acarigua",
    "state": "Portuguesa",
    "country": "Venezuela",
    "woeid": "12522827",
    "tz": "America\/Caracas",
    "type": "Airports",
    "runway_length": "5905",
    "elev": "640",
    "icao": "SVAC",
    "direct_flights": "1",
    "carriers": "1"
    }
},
  {
    "type": "Feature","geometry": {"type": "Point","coordinates": [72.175,10.8415]},
    "properties": { "code": "AGX",
    "name": "Agatti Island Airport",
    "city": "Agatti Island",
    "state": "Lakshadweep",
    "country": "India",
    "woeid": "12467998",
    "tz": "Asia\/Kolkata",
    "type": "Airports",
    "runway_length": "1204",
    "elev": null,
    "icao": "VOAT",
    "direct_flights": "1",
    "carriers": "1"
    }
},
  {
    "type": "Feature","geometry": {"type": "Point","coordinates": [42.6556,18.24]},
    "properties": { "code": "AHB",
    "name": "Abha Airport",
    "city": "Hajlah",
    "state": "Asir",
    "country": "Saudi Arabia",
    "woeid": "12517317",
    "tz": "Asia\/Riyadh",
    "type": "Airports",
    "runway_length": "10991",
    "elev": "6857",
    "icao": "OEAB",
    "direct_flights": "6",
    "carriers": "2"
    }
},
  {
    "type": "Feature","geometry": {"type": "Point","coordinates": [-120.151,40.2664]},
    "properties": { "code": "AHC",
    "name": "Amedee Army Air Field",
    "city": "Herlong",
    "state": "California",
    "country": "United States",
    "woeid": "12518602",
    "tz": "America\/Los_Angeles",
    "type": "Military Airport",
    "runway_length": null,
    "elev": null,
    "icao": "KAHC",
    "direct_flights": "1",
    "carriers": "1"
    }
},
  {
    "type": "Feature","geometry": {"type": "Point","coordinates": [-1.3,-14.5]},
    "properties": { "code": "AHE",
    "name": "Ahe Airport",
    "city": "Ahe",
    "state": "Tuamotu-Gambier",
    "country": "French Polynesia",
    "woeid": "24549702",
    "tz": "Pacific\/Midway",
    "type": "Airports",
    "runway_length": null,
    "elev": null,
    "icao": "",
    "direct_flights": "3",
    "carriers": "1"
    }
},
  {
    "type": "Feature","geometry": {"type": "Point","coordinates": [8.29279,40.6319]},
    "properties": { "code": "AHO",
    "name": "Alghero Airport",
    "city": "Alghero",
    "state": "Sardinia",
    "country": "Italy",
    "woeid": "12513798",
    "tz": "Europe\/Rome",
    "type": "Airports",
    "runway_length": "9842",
    "elev": "88",
    "icao": "LIEA",
    "direct_flights": "23",
    "carriers": "11"
    }
},
  {
    "type": "Feature","geometry": {"type": "Point","coordinates": [-84.4041,15.4534]},
    "properties": { "code": "AHS",
    "name": "Ahuas Airport",
    "city": "Auas",
    "state": "Gracias a Dios",
    "country": "Honduras",
    "woeid": "12524351",
    "tz": "America\/Tegucigalpa",
    "type": "Airports",
    "runway_length": "2460",
    "elev": "98",
    "icao": "",
    "direct_flights": "1",
    "carriers": "1"
    }
},
  {
    "type": "Feature","geometry": {"type": "Point","coordinates": [-3.8383,35.1781]},
    "properties": { "code": "AHU",
    "name": "Cote du Rif Airport",
    "city": "Al Hoceima",
    "state": "Al Hoceima",
    "country": "Morocco",
    "woeid": "12514784",
    "tz": "Africa\/Casablanca",
    "type": "Airports",
    "runway_length": "7087",
    "elev": "89",
    "icao": "GMTA",
    "direct_flights": "2",
    "carriers": "1"
    }
},
  {
    "type": "Feature","geometry": {"type": "Point","coordinates": [-102.81,42.0622]},
    "properties": { "code": "AIA",
    "name": "Alliance Municipal Airport",
    "city": "Alliance",
    "state": "Nebraska",
    "country": "United States",
    "woeid": "12518583",
    "tz": "America\/Denver",
    "type": "Airports",
    "runway_length": "9202",
    "elev": "3929",
    "icao": "KAIA",
    "direct_flights": "3",
    "carriers": "3"
    }
},
  {
    "type": "Feature","geometry": {"type": "Point","coordinates": [-159.857,70.6139]},
    "properties": { "code": "AIN",
    "name": "Wainwright Airport",
    "city": "Wainwright",
    "state": "Alaska",
    "country": "United States",
    "woeid": "12522307",
    "tz": "America\/Anchorage",
    "type": "Airports",
    "runway_length": "2200",
    "elev": "25",
    "icao": "PAWT",
    "direct_flights": "2",
    "carriers": "1"
    }
},
  {
    "type": "Feature","geometry": {"type": "Point","coordinates": [-159.765,-18.8299]},
    "properties": { "code": "AIT",
    "name": "Aitutaki Airport",
    "city": "Aitutaki",
    "state": "Aitutaki",
    "country": "Cook Islands",
    "woeid": "24549676",
    "tz": "Pacific\/Rarotonga",
    "type": "Airports",
    "runway_length": "5981",
    "elev": "14",
    "icao": "NCAI",
    "direct_flights": "1",
    "carriers": "2"
    }
},
  {
    "type": "Feature","geometry": {"type": "Point","coordinates": [-158.1,-20.0333]},
    "properties": { "code": "AIU",
    "name": "Atiu Island",
    "city": "Atiu Island",
    "state": "Atiu",
    "country": "Cook Islands",
    "woeid": "12523056",
    "tz": "Pacific\/Rarotonga",
    "type": "Airports",
    "runway_length": "2648",
    "elev": "200",
    "icao": "NCAT",
    "direct_flights": "1",
    "carriers": "1"
    }
},
  {
    "type": "Feature","geometry": {"type": "Point","coordinates": [8.79778,41.9204]},
    "properties": { "code": "AJA",
    "name": "Campo Dell Oro Airport",
    "city": "Ajaccio",
    "state": "Corsica",
    "country": "France",
    "woeid": "12512869",
    "tz": "Europe\/Paris",
    "type": "Airports",
    "runway_length": "6972",
    "elev": "16",
    "icao": "LFKJ",
    "direct_flights": "18",
    "carriers": "6"
    }
},
  {
    "type": "Feature","geometry": {"type": "Point","coordinates": [40.1039,29.7897]},
    "properties": { "code": "AJF",
    "name": "Al Jouf Airport",
    "city": "Sakakah",
    "state": "Al Jawf",
    "country": "Saudi Arabia",
    "woeid": "12517324",
    "tz": "Asia\/Riyadh",
    "type": "Airports",
    "runway_length": "12008",
    "elev": "2261",
    "icao": "OESK",
    "direct_flights": "6",
    "carriers": "1"
    }
},
  {
    "type": "Feature","geometry": {"type": "Point","coordinates": [43.0618,39.7239]},
    "properties": { "code": "AJI",
    "name": "Agri Airport",
    "city": "Agr\u0131",
    "state": "A\u011fr\u0131",
    "country": "Turkey",
    "woeid": "12523340",
    "tz": "Europe\/Istanbul",
    "type": "Airports",
    "runway_length": null,
    "elev": null,
    "icao": "LTCO",
    "direct_flights": "2",
    "carriers": "1"
    }
},
  {
    "type": "Feature","geometry": {"type": "Point","coordinates": [92.8083,23.7361]},
    "properties": { "code": "AJL",
    "name": "Aizwal Airport",
    "city": "Aizawl",
    "state": "Mizoram",
    "country": "India",
    "woeid": "12513530",
    "tz": "Asia\/Kolkata",
    "type": "Airports",
    "runway_length": "3131",
    "elev": "1000",
    "icao": "VEAZ",
    "direct_flights": "3",
    "carriers": "2"
    }
},
  {
    "type": "Feature","geometry": {"type": "Point","coordinates": [44.3709,-12.2234]},
    "properties": { "code": "AJN",
    "name": "Comoros",
    "city": "Anjouan",
    "state": "Anjouan",
    "country": "Comoros",
    "woeid": "23424786",
    "tz": "Indian\/Comoro",
    "type": "Airports",
    "runway_length": "4429",
    "elev": "62",
    "icao": "FMCV",
    "direct_flights": "5",
    "carriers": "1"
    }
},
  {
    "type": "Feature","geometry": {"type": "Point","coordinates": [19.2647,65.592]},
    "properties": { "code": "AJR",
    "name": "Arvidsjaur Airport",
    "city": "Arvidsjaur",
    "state": "Norrbotten",
    "country": "Sweden",
    "woeid": "22656498",
    "tz": "Europe\/Stockholm",
    "type": "Airports",
    "runway_length": null,
    "elev": null,
    "icao": "ESNX",
    "direct_flights": "2",
    "carriers": "3"
    }
},
  {
    "type": "Feature","geometry": {"type": "Point","coordinates": [-37.0733,-10.985]},
    "properties": { "code": "AJU",
    "name": "Santa Maria Airport",
    "city": "Aracaju",
    "state": "Sergipe",
    "country": "Brazil",
    "woeid": "12511305",
    "tz": "America\/Belem",
    "type": "Airports",
    "runway_length": "5372",
    "elev": "26",
    "icao": "SBAR",
    "direct_flights": "5",
    "carriers": "3"
    }
},
  {
    "type": "Feature","geometry": {"type": "Point","coordinates": [108.912,32.7026]},
    "properties": { "code": "AKA",
    "name": "Ankang Airport",
    "city": "Ankang",
    "state": "Shaanxi",
    "country": "China",
    "woeid": "12511979",
    "tz": "Asia\/Shanghai",
    "type": "Airports",
    "runway_length": null,
    "elev": null,
    "icao": "ZLAK",
    "direct_flights": "1",
    "carriers": "1"
    }
},
  {
    "type": "Feature","geometry": {"type": "Point","coordinates": [-174.204,52.2217]},
    "properties": { "code": "AKB",
    "name": "Atka Airport",
    "city": "Atka",
    "state": "Alaska",
    "country": "United States",
    "woeid": "12518685",
    "tz": "America\/Adak",
    "type": "Airports",
    "runway_length": "3100",
    "elev": "33",
    "icao": "",
    "direct_flights": "1",
    "carriers": "2"
    }
},
  {
    "type": "Feature","geometry": {"type": "Point","coordinates": [23.3189,24.1819]},
    "properties": { "code": "AKF",
    "name": "Kufra Airport",
    "city": "Kufrah",
    "state": "Al Kufrah",
    "country": "Libya",
    "woeid": "12514656",
    "tz": "Africa\/Tripoli",
    "type": "Airports",
    "runway_length": "12007",
    "elev": "1367",
    "icao": "HLKF",
    "direct_flights": "1",
    "carriers": "2"
    }
},
  {
    "type": "Feature","geometry": {"type": "Point","coordinates": [-161.218,60.8866]},
    "properties": { "code": "AKI",
    "name": "Akiak Airport",
    "city": "Bethel",
    "state": "Alaska",
    "country": "United States",
    "woeid": "12524554",
    "tz": "America\/Anchorage",
    "type": "Airports",
    "runway_length": "2000",
    "elev": "22",
    "icao": "",
    "direct_flights": "1",
    "carriers": "2"
    }
},
  {
    "type": "Feature","geometry": {"type": "Point","coordinates": [142.453,43.665]},
    "properties": { "code": "AKJ",
    "name": "Asahikawa Airport",
    "city": "Asahikawa-shi",
    "state": "Hokkaido Prefecture",
    "country": "Japan",
    "woeid": "28360516",
    "tz": "Asia\/Tokyo",
    "type": "Airports",
    "runway_length": "6560",
    "elev": "709",
    "icao": "RJEC",
    "direct_flights": "4",
    "carriers": "5"
    }
},
  {
    "type": "Feature","geometry": {"type": "Point","coordinates": [-154.167,56.95]},
    "properties": { "code": "AKK",
    "name": "Akhiok Airport",
    "city": "Kodiak",
    "state": "Alaska",
    "country": "United States",
    "woeid": "12524555",
    "tz": "America\/Anchorage",
    "type": "Airports",
    "runway_length": "2170",
    "elev": "50",
    "icao": "PAKH",
    "direct_flights": "1",
    "carriers": "1"
    }
},
  {
    "type": "Feature","geometry": {"type": "Point","coordinates": [174.782,-37.0085]},
    "properties": { "code": "AKL",
    "name": "Auckland International Airport",
    "city": "Manukau City",
    "state": "Auckland",
    "country": "New Zealand",
    "woeid": "12515151",
    "tz": "Pacific\/Auckland",
    "type": "Airports",
    "runway_length": "10800",
    "elev": "23",
    "icao": "NZAA",
    "direct_flights": "52",
    "carriers": "35"
    }
},
  {
    "type": "Feature","geometry": {"type": "Point","coordinates": [-156.655,58.6775]},
    "properties": { "code": "AKN",
    "name": "King Salmon Airport",
    "city": "King Salmon",
    "state": "Alaska",
    "country": "United States",
    "woeid": "12520466",
    "tz": "America\/Anchorage",
    "type": "Airports",
    "runway_length": "8500",
    "elev": "57",
    "icao": "PAKN",
    "direct_flights": "14",
    "carriers": "7"
    }
},
  {
    "type": "Feature","geometry": {"type": "Point","coordinates": [-151.79,68.1916]},
    "properties": { "code": "AKP",
    "name": "Anaktuvuk Pass Airport",
    "city": "Anaktuvuk Pass",
    "state": "Alaska",
    "country": "United States",
    "woeid": "12524556",
    "tz": "America\/Anchorage",
    "type": "Airports",
    "runway_length": "5500",
    "elev": "2100",
    "icao": "PAKP",
    "direct_flights": "3",
    "carriers": "4"
    }
},
  {
    "type": "Feature","geometry": {"type": "Point","coordinates": [27.3167,-27.6667]},
    "properties": { "code": "AKS",
    "name": "Kroonstad Airport",
    "city": "Kroonstad",
    "state": "Free State",
    "country": "South Africa",
    "woeid": "12517431",
    "tz": "Africa\/Johannesburg",
    "type": "Airports",
    "runway_length": null,
    "elev": null,
    "icao": "FAKS",
    "direct_flights": "1",
    "carriers": "1"
    }
},
  {
    "type": "Feature","geometry": {"type": "Point","coordinates": [80.1982,41.171]},
    "properties": { "code": "AKU",
    "name": "Aksu Airport",
    "city": "Aksu",
    "state": "Xinjiang",
    "country": "China",
    "woeid": "12511976",
    "tz": "Asia\/Kashgar",
    "type": "Airports",
    "runway_length": null,
    "elev": null,
    "icao": "ZWAK",
    "direct_flights": "1",
    "carriers": "1"
    }
},
  {
    "type": "Feature","geometry": {"type": "Point","coordinates": [-78.1509,60.8142]},
    "properties": { "code": "AKV",
    "name": "Akulivik Airport",
    "city": "Chisasibi",
    "state": "Quebec",
    "country": "Canada",
    "woeid": "12524039",
    "tz": "America\/Iqaluit",
    "type": "Airports",
    "runway_length": null,
    "elev": null,
    "icao": "CYKO",
    "direct_flights": "2",
    "carriers": "1"
    }
},
  {
    "type": "Feature","geometry": {"type": "Point","coordinates": [57.2115,50.2362]},
    "properties": { "code": "AKX",
    "name": "Aktyubinsk Airport",
    "city": "Aqtobe",
    "state": "Aqtobe",
    "country": "Kazakhstan",
    "woeid": "12514256",
    "tz": "Asia\/Aqtobe",
    "type": "Airports",
    "runway_length": "10170",
    "elev": "722",
    "icao": "UATT",
    "direct_flights": "4",
    "carriers": "3"
    }
},
  {
    "type": "Feature","geometry": {"type": "Point","coordinates": [92.8803,20.1303]},
    "properties": { "code": "AKY",
    "name": "Sittwe Airport",
    "city": "Sittwe",
    "state": "Rakhine State",
    "country": "Myanmar",
    "woeid": "12510936",
    "tz": "Asia\/Rangoon",
    "type": "Airports",
    "runway_length": "6000",
    "elev": "28",
    "icao": "VYSW",
    "direct_flights": "3",
    "carriers": "3"
    }
},
  {
    "type": "Feature","geometry": {"type": "Point","coordinates": [77.0319,43.3608]},
    "properties": { "code": "ALA",
    "name": "Alma Ata Airport",
    "city": "Almaty",
    "state": "Almaty",
    "country": "Kazakhstan",
    "woeid": "12514259",
    "tz": "Asia\/Almaty",
    "type": "Airports",
    "runway_length": "14427",
    "elev": "2234",
    "icao": "UAAA",
    "direct_flights": "44",
    "carriers": "36"
    }
},
  {
    "type": "Feature","geometry": {"type": "Point","coordinates": [-73.809,42.7426]},
    "properties": { "code": "ALB",
    "name": "Albany International Airport",
    "city": "Latham",
    "state": "New York",
    "country": "United States",
    "woeid": "12518554",
    "tz": "America\/New_York",
    "type": "Airports",
    "runway_length": "7200",
    "elev": "285",
    "icao": "KALB",
    "direct_flights": "27",
    "carriers": "27"
    }
},
  {
    "type": "Feature","geometry": {"type": "Point","coordinates": [-0.5576,38.2844]},
    "properties": { "code": "ALC",
    "name": "Alicante Airport",
    "city": "Elx",
    "state": "Valencia",
    "country": "Spain",
    "woeid": "22412043",
    "tz": "Europe\/Madrid",
    "type": "Airports",
    "runway_length": "9842",
    "elev": "141",
    "icao": "LEAL",
    "direct_flights": "91",
    "carriers": "37"
    }
},
  {
    "type": "Feature","geometry": {"type": "Point","coordinates": [23.3571,69.9793]},
    "properties": { "code": "ALF",
    "name": "Alta Airport",
    "city": "Alta",
    "state": "Finnmark Fylke",
    "country": "Norway",
    "woeid": "12515099",
    "tz": "Europe\/Oslo",
    "type": "Airports",
    "runway_length": "5249",
    "elev": "9",
    "icao": "ENAT",
    "direct_flights": "7",
    "carriers": "3"
    }
},
  {
    "type": "Feature","geometry": {"type": "Point","coordinates": [3.21935,36.6993]},
    "properties": { "code": "ALG",
    "name": "Houari Boumediene Airport",
    "city": "Algiers",
    "state": "Alger",
    "country": "Algeria",
    "woeid": "12510331",
    "tz": "Africa\/Algiers",
    "type": "Airports",
    "runway_length": "11483",
    "elev": "82",
    "icao": "DAAG",
    "direct_flights": "62",
    "carriers": "20"
    }
},
  {
    "type": "Feature","geometry": {"type": "Point","coordinates": [117.808,-34.9447]},
    "properties": { "code": "ALH",
    "name": "Albany Airport",
    "city": "Albany",
    "state": "Western Australia",
    "country": "Australia",
    "woeid": "12510582",
    "tz": "Australia\/Perth",
    "type": "Airports",
    "runway_length": "5250",
    "elev": "232",
    "icao": "YABA",
    "direct_flights": "1",
    "carriers": "1"
    }
},
  {
    "type": "Feature","geometry": {"type": "Point","coordinates": [-105.994,32.8407]},
    "properties": { "code": "ALM",
    "name": "Alamogordo White Sands Regional Airport",
    "city": "Alamogordo",
    "state": "New Mexico",
    "country": "United States",
    "woeid": "12518553",
    "tz": "America\/Denver",
    "type": "Airports",
    "runway_length": "7005",
    "elev": "4197",
    "icao": "KALM",
    "direct_flights": "1",
    "carriers": "1"
    }
},
  {
    "type": "Feature","geometry": {"type": "Point","coordinates": [-92.3951,42.5509]},
    "properties": { "code": "ALO",
    "name": "Waterloo Municipal Airport",
    "city": "Waterloo",
    "state": "Iowa",
    "country": "United States",
    "woeid": "12522347",
    "tz": "America\/Chicago",
    "type": "Airports",
    "runway_length": "8401",
    "elev": "873",
    "icao": "KALO",
    "direct_flights": "1",
    "carriers": "4"
    }
},
  {
    "type": "Feature","geometry": {"type": "Point","coordinates": [37.2267,36.1808]},
    "properties": { "code": "ALP",
    "name": "Aleppo International Airport",
    "city": "Djibrine",
    "state": "H'alab",
    "country": "Syria",
    "woeid": "12517695",
    "tz": "Asia\/Damascus",
    "type": "Airports",
    "runway_length": "9908",
    "elev": "1276",
    "icao": "OSAP",
    "direct_flights": "19",
    "carriers": "13"
    }
},
  {
    "type": "Feature","geometry": {"type": "Point","coordinates": [-105.865,37.4444]},
    "properties": { "code": "ALS",
    "name": "San Luis Valley Regional Airport",
    "city": "Alamosa",
    "state": "Colorado",
    "country": "United States",
    "woeid": "12521726",
    "tz": "America\/Denver",
    "type": "Airports",
    "runway_length": "8499",
    "elev": "7535",
    "icao": "KALS",
    "direct_flights": "1",
    "carriers": "3"
    }
},
  {
    "type": "Feature","geometry": {"type": "Point","coordinates": [-118.283,46.0879]},
    "properties": { "code": "ALW",
    "name": "Walla Walla Regional Airport",
    "city": "Walla Walla",
    "state": "Washington",
    "country": "United States",
    "woeid": "12522317",
    "tz": "America\/Los_Angeles",
    "type": "Airports",
    "runway_length": "7186",
    "elev": "1205",
    "icao": "KALW",
    "direct_flights": "1",
    "carriers": "4"
    }
},
  {
    "type": "Feature","geometry": {"type": "Point","coordinates": [29.9491,31.1845]},
    "properties": { "code": "ALY",
    "name": "An-Nuzhah Airport",
    "city": "Alexandria",
    "state": "Al Iskandariyah",
    "country": "Egypt",
    "woeid": "23388264",
    "tz": "Africa\/Cairo",
    "type": "Airports",
    "runway_length": "7021",
    "elev": null,
    "icao": "HEAX",
    "direct_flights": "19",
    "carriers": "15"
    }
},
  {
    "type": "Feature","geometry": {"type": "Point","coordinates": [-154.246,56.8988]},
    "properties": { "code": "ALZ",
    "name": "Alitak Seaplane Base",
    "city": "Alitak",
    "state": "Alaska",
    "country": "United States",
    "woeid": "12524557",
    "tz": "America\/Anchorage",
    "type": "Sea Plane Base",
    "runway_length": null,
    "elev": "1",
    "icao": "",
    "direct_flights": "1",
    "carriers": "1"
    }
},
  {
    "type": "Feature","geometry": {"type": "Point","coordinates": [-101.706,35.2177]},
    "properties": { "code": "AMA",
    "name": "Amarillo International Airport",
    "city": "Amarillo",
    "state": "Texas",
    "country": "United States",
    "woeid": "12518598",
    "tz": "America\/Chicago",
    "type": "Airports",
    "runway_length": "13502",
    "elev": "3606",
    "icao": "KAMA",
    "direct_flights": "7",
    "carriers": "10"
    }
},
  {
    "type": "Feature","geometry": {"type": "Point","coordinates": [72.6328,23.0728]},
    "properties": { "code": "AMD",
    "name": "Sardar Vallabhbhai Patel International Airport",
    "city": "Ahmedabad",
    "state": "Gujarat",
    "country": "India",
    "woeid": "12513529",
    "tz": "Asia\/Kolkata",
    "type": "Airports",
    "runway_length": "7500",
    "elev": "184",
    "icao": "VAAH",
    "direct_flights": "16",
    "carriers": "15"
    }
},
  {
    "type": "Feature","geometry": {"type": "Point","coordinates": [37.5405,6.01327]},
    "properties": { "code": "AMH",
    "name": "Ethiopia",
    "city": "Arba Mintch",
    "state": "Gamo Gofa",
    "country": "Ethiopia",
    "woeid": "23424808",
    "tz": "Africa\/Addis_Ababa",
    "type": "Airports",
    "runway_length": "3999",
    "elev": "4000",
    "icao": "HAAM",
    "direct_flights": "1",
    "carriers": "1"
    }
},
  {
    "type": "Feature","geometry": {"type": "Point","coordinates": [116.098,-8.562]},
    "properties": { "code": "AMI",
    "name": "Selaparang",
    "city": "Mataram",
    "state": "Nusa Tenggara Barat",
    "country": "Indonesia",
    "woeid": "12513504",
    "tz": "Asia\/Makassar",
    "type": "Airports",
    "runway_length": "5249",
    "elev": "48",
    "icao": "WRRA",
    "direct_flights": "6",
    "carriers": "7"
    }
},
  {
    "type": "Feature","geometry": {"type": "Point","coordinates": [35.9936,31.7231]},
    "properties": { "code": "AMM",
    "name": "Queen Alia International Airport",
    "city": "Amman",
    "state": "'Amman",
    "country": "Jordan",
    "woeid": "12514059",
    "tz": "Asia\/Amman",
    "type": "Airports",
    "runway_length": "12008",
    "elev": "2395",
    "icao": "OJAI",
    "direct_flights": "62",
    "carriers": "41"
    }
},
  {
    "type": "Feature","geometry": {"type": "Point","coordinates": [128.078,-3.7067]},
    "properties": { "code": "AMQ",
    "name": "Pattimura Airport",
    "city": "Ambon",
    "state": "Maluku",
    "country": "Indonesia",
    "woeid": "12513492",
    "tz": "Asia\/Jakarta",
    "type": "Airports",
    "runway_length": "6070",
    "elev": "33",
    "icao": "WAPP",
    "direct_flights": "5",
    "carriers": "3"
    }
},
  {
    "type": "Feature","geometry": {"type": "Point","coordinates": [4.77511,52.3122]},
    "properties": { "code": "AMS",
    "name": "Schiphol Airport",
    "city": "Schiphol Zuid",
    "state": "North Holland",
    "country": "Netherlands",
    "woeid": "22386730",
    "tz": "Europe\/Amsterdam",
    "type": "Airports",
    "runway_length": "12467",
    "elev": "-11",
    "icao": "EHAM",
    "direct_flights": "284",
    "carriers": "118"
    }
},
  {
    "type": "Feature","geometry": {"type": "Point","coordinates": [61.5586,69.7638]},
    "properties": { "code": "AMV",
    "name": "Amderma Airport",
    "city": "Nar'yan-Mar",
    "state": "Nenetskiy Avtonomnyy Okrug",
    "country": "Russia",
    "woeid": "12515701",
    "tz": "Europe\/Moscow",
    "type": "Airports",
    "runway_length": null,
    "elev": null,
    "icao": "ULDD",
    "direct_flights": "1",
    "carriers": "1"
    }
},
  {
    "type": "Feature","geometry": {"type": "Point","coordinates": [-100.608,38.4819]},
    "properties": { "code": "AMY",
    "name": "Ambatomainty",
    "city": "Ambatomainty",
    "state": "Fianarantsoa",
    "country": "Madagascar",
    "woeid": "1489538",
    "tz": "Indian\/Antananarivo",
    "type": "Airports",
    "runway_length": "3010",
    "elev": "1050",
    "icao": "",
    "direct_flights": "2",
    "carriers": "1"
    }
},
  {
    "type": "Feature","geometry": {"type": "Point","coordinates": [-149.961,61.1767]},
    "properties": { "code": "ANC",
    "name": "Anchorage International Airport",
    "city": "Anchorage",
    "state": "Alaska",
    "country": "United States",
    "woeid": "12518613",
    "tz": "America\/Anchorage",
    "type": "Airports",
    "runway_length": "10897",
    "elev": "144",
    "icao": "PANC",
    "direct_flights": "62",
    "carriers": "47"
    }
},
  {
    "type": "Feature","geometry": {"type": "Point","coordinates": [-0.312222,47.5603]},
    "properties": { "code": "ANE",
    "name": "A\u00e9roport d'Angers-Marc\u00e9",
    "city": "Seiches-sur-le-Loir",
    "state": "Pays de la Loire",
    "country": "France",
    "woeid": "22868196",
    "tz": "Europe\/Paris",
    "type": "Airports",
    "runway_length": "4052",
    "elev": "184",
    "icao": "LFRA",
    "direct_flights": "1",
    "carriers": "1"
    }
},
  {
    "type": "Feature","geometry": {"type": "Point","coordinates": [-70.4419,-23.44]},
    "properties": { "code": "ANF",
    "name": "Cerro Moreno International Airport",
    "city": "Antofagasta",
    "state": "Antofagasta",
    "country": "Chile",
    "woeid": "12512312",
    "tz": "America\/Santiago",
    "type": "Airports",
    "runway_length": "8527",
    "elev": "460",
    "icao": "SCFA",
    "direct_flights": "7",
    "carriers": "5"
    }
},
  {
    "type": "Feature","geometry": {"type": "Point","coordinates": [0.21835,45.7274]},
    "properties": { "code": "ANG",
    "name": "Brie Champniers Airport",
    "city": "Champniers",
    "state": "Poitou-Charentes",
    "country": "France",
    "woeid": "12512864",
    "tz": "Europe\/Paris",
    "type": "Airports",
    "runway_length": "2723",
    "elev": "289",
    "icao": "LFBU",
    "direct_flights": "1",
    "carriers": "1"
    }
},
  {
    "type": "Feature","geometry": {"type": "Point","coordinates": [-159.535,61.5742]},
    "properties": { "code": "ANI",
    "name": "Aniak Airport",
    "city": "Bethel",
    "state": "Alaska",
    "country": "United States",
    "woeid": "12524558",
    "tz": "America\/Anchorage",
    "type": "Airports",
    "runway_length": "6000",
    "elev": "88",
    "icao": "PANI",
    "direct_flights": "6",
    "carriers": "8"
    }
},
  {
    "type": "Feature","geometry": {"type": "Point","coordinates": [46.8543,-18.7772]},
    "properties": { "code": "ANM",
    "name": "Madagascar",
    "city": "Antalaha",
    "state": null,
    "country": "Madagascar",
    "woeid": "23424883",
    "tz": "Indian\/Antananarivo",
    "type": "Airports",
    "runway_length": "3914",
    "elev": "20",
    "icao": "FMNH",
    "direct_flights": "3",
    "carriers": "1"
    }
},
  {
    "type": "Feature","geometry": {"type": "Point","coordinates": [4.45236,51.1896]},
    "properties": { "code": "ANR",
    "name": "Deurne Airport",
    "city": "Antwerp",
    "state": "Antwerp",
    "country": "Belgium",
    "woeid": "22028955",
    "tz": "Europe\/Brussels",
    "type": "Airports",
    "runway_length": "4839",
    "elev": "39",
    "icao": "EBAW",
    "direct_flights": "3",
    "carriers": "2"
    }
},
  {
    "type": "Feature","geometry": {"type": "Point","coordinates": [-61.79,17.1375]},
    "properties": { "code": "ANU",
    "name": "V C Bird International Airport",
    "city": "Carlisle",
    "state": "Saint George",
    "country": "Antigua and Barbuda",
    "woeid": "12510300",
    "tz": "America\/Antigua",
    "type": "Airports",
    "runway_length": "9000",
    "elev": "62",
    "icao": "TAPA",
    "direct_flights": "28",
    "carriers": "14"
    }
},
  {
    "type": "Feature","geometry": {"type": "Point","coordinates": [-160.217,62.65]},
    "properties": { "code": "ANV",
    "name": "Anvik Airport",
    "city": "Anvik",
    "state": "Alaska",
    "country": "United States",
    "woeid": "12524559",
    "tz": "America\/Nome",
    "type": "Airports",
    "runway_length": "2880",
    "elev": "325",
    "icao": "PANV",
    "direct_flights": "2",
    "carriers": "3"
    }
},
  {
    "type": "Feature","geometry": {"type": "Point","coordinates": [16.1236,69.3088]},
    "properties": { "code": "ANX",
    "name": "Andoya Airport",
    "city": "Andenes",
    "state": "Nordland Fylke",
    "country": "Norway",
    "woeid": "12515100",
    "tz": "Europe\/Oslo",
    "type": "Airports",
    "runway_length": "8005",
    "elev": "46",
    "icao": "ENAN",
    "direct_flights": "4",
    "carriers": "1"
    }
},
  {
    "type": "Feature","geometry": {"type": "Point","coordinates": [12.5111,50.9794]},
    "properties": { "code": "AOC",
    "name": "Altenburg Nobitz",
    "city": "Altenburg",
    "state": "Thuringia",
    "country": "Germany",
    "woeid": "12597007",
    "tz": "Europe\/Berlin",
    "type": "Airports",
    "runway_length": "2235",
    "elev": "641",
    "icao": "EDAC",
    "direct_flights": "2",
    "carriers": "1"
    }
},
  {
    "type": "Feature","geometry": {"type": "Point","coordinates": [30.5172,39.7905]},
    "properties": { "code": "AOE",
    "name": "Anadolu University Airport",
    "city": "Eski\u015fehir",
    "state": "Eski\u015fehir",
    "country": "Turkey",
    "woeid": "12523341",
    "tz": "Europe\/Istanbul",
    "type": "Airports",
    "runway_length": null,
    "elev": null,
    "icao": "",
    "direct_flights": "2",
    "carriers": "2"
    }
},
  {
    "type": "Feature","geometry": {"type": "Point","coordinates": [13.3634,43.6158]},
    "properties": { "code": "AOI",
    "name": "Falconara Airport",
    "city": "Falconara Marittima",
    "state": "Marche",
    "country": "Italy",
    "woeid": "12513819",
    "tz": "Europe\/Rome",
    "type": "Airports",
    "runway_length": "9810",
    "elev": "50",
    "icao": "LIPY",
    "direct_flights": "12",
    "carriers": "16"
    }
},
  {
    "type": "Feature","geometry": {"type": "Point","coordinates": [140.69,40.7357]},
    "properties": { "code": "AOJ",
    "name": "Aomori Airport",
    "city": "Aomori-shi",
    "state": "Aomori Prefecture",
    "country": "Japan",
    "woeid": "12523065",
    "tz": "Asia\/Tokyo",
    "type": "Airports",
    "runway_length": "4590",
    "elev": "662",
    "icao": "RJSA",
    "direct_flights": "6",
    "carriers": "3"
    }
},
  {
    "type": "Feature","geometry": {"type": "Point","coordinates": [27.1472,35.4239]},
    "properties": { "code": "AOK",
    "name": "Karpathos Airport",
    "city": "Karpathos",
    "state": "Notio Aigaio",
    "country": "Greece",
    "woeid": "12513293",
    "tz": "Europe\/Athens",
    "type": "Airports",
    "runway_length": "6890",
    "elev": "23",
    "icao": "LGKP",
    "direct_flights": "6",
    "carriers": "3"
    }
},
  {
    "type": "Feature","geometry": {"type": "Point","coordinates": [-78.324,40.2952]},
    "properties": { "code": "AOO",
    "name": "Altoona-Blair County Airport",
    "city": "Martinsburg",
    "state": "Pennsylvania",
    "country": "United States",
    "woeid": "12518593",
    "tz": "America\/New_York",
    "type": "Airports",
    "runway_length": "5466",
    "elev": "1504",
    "icao": "KAOO",
    "direct_flights": "2",
    "carriers": "1"
    }
},
  {
    "type": "Feature","geometry": {"type": "Point","coordinates": [100.404,6.1947]},
    "properties": { "code": "AOR",
    "name": "Sultan Abdul Halim Airport",
    "city": "Kepala Batas",
    "state": "Kedah",
    "country": "Malaysia",
    "woeid": "12515009",
    "tz": "Asia\/Kuala_Lumpur",
    "type": "Airports",
    "runway_length": "6600",
    "elev": "15",
    "icao": "WMKA",
    "direct_flights": "1",
    "carriers": "2"
    }
},
  {
    "type": "Feature","geometry": {"type": "Point","coordinates": [-153.839,57.4672]},
    "properties": { "code": "AOS",
    "name": "Amook Bay Seaplane Base",
    "city": "Amook",
    "state": "Alaska",
    "country": "United States",
    "woeid": "12524560",
    "tz": "America\/Anchorage",
    "type": "Airports",
    "runway_length": null,
    "elev": null,
    "icao": "",
    "direct_flights": "2",
    "carriers": "1"
    }
},
  {
    "type": "Feature","geometry": {"type": "Point","coordinates": [-104.845,39.5752]},
    "properties": { "code": "APA",
    "name": "Centennial Airport",
    "city": "Englewood",
    "state": "Colorado",
    "country": "United States",
    "woeid": "12519112",
    "tz": "America\/Denver",
    "type": "Other Airport",
    "runway_length": "10002",
    "elev": "5883",
    "icao": "KAPA",
    "direct_flights": "0",
    "carriers": "0"
    }
},
  {
    "type": "Feature","geometry": {"type": "Point","coordinates": [-81.7745,26.1483]},
    "properties": { "code": "APF",
    "name": "Naples Municipal Airport",
    "city": "Naples",
    "state": "Florida",
    "country": "United States",
    "woeid": "12521078",
    "tz": "America\/New_York",
    "type": "Airports",
    "runway_length": "5000",
    "elev": "9",
    "icao": "KAPF",
    "direct_flights": "2",
    "carriers": "1"
    }
},
  {
    "type": "Feature","geometry": {"type": "Point","coordinates": [-131.787,-8.64687]},
    "properties": { "code": "APK",
    "name": "French Polynesia",
    "city": "Apataki",
    "state": "",
    "country": "French Polynesia",
    "woeid": "23424817",
    "tz": "Pacific\/Midway",
    "type": "Airports",
    "runway_length": "2756",
    "elev": "3",
    "icao": "NTGD",
    "direct_flights": "2",
    "carriers": "1"
    }
},
  {
    "type": "Feature","geometry": {"type": "Point","coordinates": [39.2814,-15.1]},
    "properties": { "code": "APL",
    "name": "Nampula Airport",
    "city": "Nampula",
    "state": "Nampula",
    "country": "Mozambique",
    "woeid": "12515027",
    "tz": "Africa\/Maputo",
    "type": "Airports",
    "runway_length": "6562",
    "elev": "1457",
    "icao": "FQNP",
    "direct_flights": "5",
    "carriers": "2"
    }
},
  {
    "type": "Feature","geometry": {"type": "Point","coordinates": [-83.5683,45.07]},
    "properties": { "code": "APN",
    "name": "Alpena County Regional Airport",
    "city": "Alpena",
    "state": "Michigan",
    "country": "United States",
    "woeid": "12518585",
    "tz": "America\/New_York",
    "type": "Airports",
    "runway_length": "9001",
    "elev": "689",
    "icao": "KAPN",
    "direct_flights": "2",
    "carriers": "4"
    }
},
  {
    "type": "Feature","geometry": {"type": "Point","coordinates": [-76.6321,7.88361]},
    "properties": { "code": "APO",
    "name": "Apartado Airport",
    "city": "Apartad\u00f3",
    "state": "Antioquia",
    "country": "Colombia",
    "woeid": "12523474",
    "tz": "America\/Bogota",
    "type": "Airports",
    "runway_length": null,
    "elev": null,
    "icao": "",
    "direct_flights": "1",
    "carriers": "3"
    }
},
  {
    "type": "Feature","geometry": {"type": "Point","coordinates": [-171.993,-13.8255]},
    "properties": { "code": "APW",
    "name": "Faleolo Airport",
    "city": "Apia",
    "state": "A`ana",
    "country": "Samoa",
    "woeid": "12523066",
    "tz": "Pacific\/Apia",
    "type": "Airports",
    "runway_length": "8858",
    "elev": "58",
    "icao": "NSFA",
    "direct_flights": "7",
    "carriers": "6"
    }
},
  {
    "type": "Feature","geometry": {"type": "Point","coordinates": [117.033,30.5167]},
    "properties": { "code": "AQG",
    "name": "Anqing Airport",
    "city": "Anqing",
    "state": "Anhui",
    "country": "China",
    "woeid": "12523067",
    "tz": "Asia\/Shanghai",
    "type": "Airports",
    "runway_length": null,
    "elev": null,
    "icao": "ZSAQ",
    "direct_flights": "2",
    "carriers": "2"
    }
},
  {
    "type": "Feature","geometry": {"type": "Point","coordinates": [46.13,28.3317]},
    "properties": { "code": "AQI",
    "name": "Hafr Al Batin Airport",
    "city": "Qaisumah",
    "state": "",
    "country": "Saudi Arabia",
    "woeid": "12517338",
    "tz": "Asia\/Riyadh",
    "type": "Airports",
    "runway_length": "7054",
    "elev": "1175",
    "icao": "",
    "direct_flights": "2",
    "carriers": "1"
    }
},
  {
    "type": "Feature","geometry": {"type": "Point","coordinates": [35.0178,29.6119]},
    "properties": { "code": "AQJ",
    "name": "Aqaba International Airport",
    "city": "Aqaba",
    "state": "Al `Aqabah",
    "country": "Jordan",
    "woeid": "12514051",
    "tz": "Asia\/Amman",
    "type": "Airports",
    "runway_length": "9843",
    "elev": "174",
    "icao": "OJAQ",
    "direct_flights": "10",
    "carriers": "5"
    }
},
  {
    "type": "Feature","geometry": {"type": "Point","coordinates": [-71.5692,-16.3372]},
    "properties": { "code": "AQP",
    "name": "Rodriguez Ballon Airport",
    "city": "Arequipa",
    "state": "Arequipa",
    "country": "Peru",
    "woeid": "12515218",
    "tz": "America\/Lima",
    "type": "Airports",
    "runway_length": "9777",
    "elev": "8365",
    "icao": "SPQU",
    "direct_flights": "3",
    "carriers": "6"
    }
},
  {
    "type": "Feature","geometry": {"type": "Point","coordinates": [-145.583,68.1167]},
    "properties": { "code": "ARC",
    "name": "Arctic Village Airport",
    "city": "Arctic Village",
    "state": "Alaska",
    "country": "United States",
    "woeid": "12524562",
    "tz": "America\/Anchorage",
    "type": "Airports",
    "runway_length": "4450",
    "elev": "2086",
    "icao": "PARC",
    "direct_flights": "3",
    "carriers": "3"
    }
},
  {
    "type": "Feature","geometry": {"type": "Point","coordinates": [-93.1848,35.1437]},
    "properties": { "code": "ARD",
    "name": "Alor Island",
    "city": "Alor Island",
    "state": "",
    "country": "Indonesia",
    "woeid": "23424846",
    "tz": "Asia\/Jakarta",
    "type": "Airports",
    "runway_length": "2952",
    "elev": "39",
    "icao": "",
    "direct_flights": "1",
    "carriers": "1"
    }
},
  {
    "type": "Feature","geometry": {"type": "Point","coordinates": [40.4242,64.4465]},
    "properties": { "code": "ARH",
    "name": "Arkhangelsk Airport",
    "city": "Arkhangel'sk",
    "state": "Arkhangelrskaya Oblast",
    "country": "Russia",
    "woeid": "12515724",
    "tz": "Europe\/Moscow",
    "type": "Airports",
    "runway_length": null,
    "elev": null,
    "icao": "ULAA",
    "direct_flights": "13",
    "carriers": "5"
    }
},
  {
    "type": "Feature","geometry": {"type": "Point","coordinates": [-70.3358,-18.3458]},
    "properties": { "code": "ARI",
    "name": "Chacalluta Airport",
    "city": "Arica",
    "state": "Tarapaca",
    "country": "Chile",
    "woeid": "12512313",
    "tz": "America\/Santiago",
    "type": "Airports",
    "runway_length": "7119",
    "elev": "180",
    "icao": "SCAR",
    "direct_flights": "3",
    "carriers": "4"
    }
},
  {
    "type": "Feature","geometry": {"type": "Point","coordinates": [36.6738,-3.36515]},
    "properties": { "code": "ARK",
    "name": "Arusha Airport",
    "city": "Arusha",
    "state": "Arusha",
    "country": "Tanzania",
    "woeid": "24554855",
    "tz": "Africa\/Dar_es_Salaam",
    "type": "Airports",
    "runway_length": null,
    "elev": null,
    "icao": "HTAR",
    "direct_flights": "1",
    "carriers": "2"
    }
},
  {
    "type": "Feature","geometry": {"type": "Point","coordinates": [151.618,-30.5308]},
    "properties": { "code": "ARM",
    "name": "Armidale Airport",
    "city": "Armidale",
    "state": "New South Wales",
    "country": "Australia",
    "woeid": "12510590",
    "tz": "Australia\/Sydney",
    "type": "Airports",
    "runway_length": "5702",
    "elev": "3556",
    "icao": "YARM",
    "direct_flights": "1",
    "carriers": "1"
    }
},
  {
    "type": "Feature","geometry": {"type": "Point","coordinates": [17.9317,59.6521]},
    "properties": { "code": "ARN",
    "name": "Arlanda Airport",
    "city": "M\u00e4rst",
    "state": "Stockholm",
    "country": "Sweden",
    "woeid": "12517610",
    "tz": "Europe\/Stockholm",
    "type": "Airports",
    "runway_length": "10827",
    "elev": "123",
    "icao": "ESSA",
    "direct_flights": "126",
    "carriers": "76"
    }
},
  {
    "type": "Feature","geometry": {"type": "Point","coordinates": [-76.0232,43.9942]},
    "properties": { "code": "ART",
    "name": "Watertown International Airport",
    "city": "Dexter",
    "state": "New York",
    "country": "United States",
    "woeid": "12522348",
    "tz": "America\/New_York",
    "type": "Airports",
    "runway_length": "5000",
    "elev": "325",
    "icao": "KART",
    "direct_flights": "1",
    "carriers": "1"
    }
},
  {
    "type": "Feature","geometry": {"type": "Point","coordinates": [-50.4261,-21.1436]},
    "properties": { "code": "ARU",
    "name": "Aracatuba Airport",
    "city": "Ara\u00e7atuba",
    "state": "Sao Paulo",
    "country": "Brazil",
    "woeid": "12511026",
    "tz": "America\/Sao_Paulo",
    "type": "Airports",
    "runway_length": "6955",
    "elev": "1358",
    "icao": "SBAU",
    "direct_flights": "2",
    "carriers": "1"
    }
},
  {
    "type": "Feature","geometry": {"type": "Point","coordinates": [-89.7371,45.9296]},
    "properties": { "code": "ARV",
    "name": "Lakelan-Noble F. Lee Memerial Field Airport",
    "city": "Woodruff",
    "state": "Wisconsin",
    "country": "United States",
    "woeid": "12521141",
    "tz": "America\/Chicago",
    "type": "Airports",
    "runway_length": "5000",
    "elev": "1628",
    "icao": "KARV",
    "direct_flights": "2",
    "carriers": "1"
    }
},
  {
    "type": "Feature","geometry": {"type": "Point","coordinates": [21.2609,46.1805]},
    "properties": { "code": "ARW",
    "name": "Ceala Airport",
    "city": "Arad",
    "state": "Arad",
    "country": "Romania",
    "woeid": "12515518",
    "tz": "Europe\/Bucharest",
    "type": "Airports",
    "runway_length": "6562",
    "elev": "351",
    "icao": "LRAR",
    "direct_flights": "5",
    "carriers": "1"
    }
},
  {
    "type": "Feature","geometry": {"type": "Point","coordinates": [-97.0528,31.4124]},
    "properties": { "code": "ASA",
    "name": "Assab",
    "city": "Assab",
    "state": "",
    "country": "Ethiopia",
    "woeid": "23424808",
    "tz": "Africa\/Addis_Ababa",
    "type": "Airports",
    "runway_length": "7546",
    "elev": "46",
    "icao": "HHSB",
    "direct_flights": "1",
    "carriers": "1"
    }
},
  {
    "type": "Feature","geometry": {"type": "Point","coordinates": [58.3294,37.9842]},
    "properties": { "code": "ASB",
    "name": "Ashkhabad Northwest Airport",
    "city": "Ashgabat",
    "state": "Ashkhabad",
    "country": "Turkmenistan",
    "woeid": "12517960",
    "tz": "Asia\/Ashgabat",
    "type": "Airports",
    "runway_length": "9842",
    "elev": "689",
    "icao": "UTAA",
    "direct_flights": "15",
    "carriers": "8"
    }
},
  {
    "type": "Feature","geometry": {"type": "Point","coordinates": [-77.7961,24.6978]},
    "properties": { "code": "ASD",
    "name": "Andros Town Airport",
    "city": "Fresh Creek",
    "state": "Central Andros",
    "country": "Bahamas",
    "woeid": "12510859",
    "tz": "America\/Nassau",
    "type": "Airports",
    "runway_length": "4000",
    "elev": "5",
    "icao": "MYAF",
    "direct_flights": "1",
    "carriers": "1"
    }
},
  {
    "type": "Feature","geometry": {"type": "Point","coordinates": [-106.864,39.2197]},
    "properties": { "code": "ASE",
    "name": "Aspen Pitkin County Airport-Sardy Field",
    "city": "Aspen",
    "state": "Colorado",
    "country": "United States",
    "woeid": "12518679",
    "tz": "America\/Denver",
    "type": "Airports",
    "runway_length": "7003",
    "elev": "7815",
    "icao": "KASE",
    "direct_flights": "5",
    "carriers": "5"
    }
},
  {
    "type": "Feature","geometry": {"type": "Point","coordinates": [48.0515,46.2971]},
    "properties": { "code": "ASF",
    "name": "Astrakhan Southeast Airport",
    "city": "Astrakhan'",
    "state": "Astrakhanskaya Oblast",
    "country": "Russia",
    "woeid": "12515745",
    "tz": "Europe\/Samara",
    "type": "Airports",
    "runway_length": null,
    "elev": null,
    "icao": "URWA",
    "direct_flights": "7",
    "carriers": "7"
    }
},
  {
    "type": "Feature","geometry": {"type": "Point","coordinates": [-14.4081,-7.93586]},
    "properties": { "code": "ASI",
    "name": "Wideawake Fld",
    "city": "Georgetown, Ascension Island",
    "state": "Ascension",
    "country": "St. Helena",
    "woeid": "12466481",
    "tz": "Atlantic\/St_Helena",
    "type": "Airports",
    "runway_length": null,
    "elev": null,
    "icao": "FHAW",
    "direct_flights": "2",
    "carriers": "1"
    }
},
  {
    "type": "Feature","geometry": {"type": "Point","coordinates": [129.712,28.431]},
    "properties": { "code": "ASJ",
    "name": "Amami Airport",
    "city": "Amami O Shima",
    "state": "Mie Prefecture",
    "country": "Japan",
    "woeid": "12513942",
    "tz": "Asia\/Tokyo",
    "type": "Airports",
    "runway_length": "4070",
    "elev": "59",
    "icao": "RJKA",
    "direct_flights": "3",
    "carriers": "2"
    }
},
  {
    "type": "Feature","geometry": {"type": "Point","coordinates": [38.9103,15.2906]},
    "properties": { "code": "ASM",
    "name": "Yohannes Iv International Airport",
    "city": "Asmara",
    "state": "Maekel",
    "country": "Eritrea",
    "woeid": "12512750",
    "tz": "Africa\/Asmara",
    "type": "Airports",
    "runway_length": "9843",
    "elev": "7661",
    "icao": "HHAS",
    "direct_flights": "9",
    "carriers": "7"
    }
},
  {
    "type": "Feature","geometry": {"type": "Point","coordinates": [34.5344,10.0611]},
    "properties": { "code": "ASO",
    "name": "Ethiopia",
    "city": "Asosa",
    "state": "Welega",
    "country": "Ethiopia",
    "woeid": "23424808",
    "tz": "Africa\/Addis_Ababa",
    "type": "Airports",
    "runway_length": "3346",
    "elev": "5260",
    "icao": "HASO",
    "direct_flights": "1",
    "carriers": "1"
    }
},
  {
    "type": "Feature","geometry": {"type": "Point","coordinates": [133.892,-23.802]},
    "properties": { "code": "ASP",
    "name": "Alice Springs Airport",
    "city": "Alice Springs",
    "state": "Northern Territory",
    "country": "Australia",
    "woeid": "12510584",
    "tz": "Australia\/Darwin",
    "type": "Airports",
    "runway_length": "8000",
    "elev": "1789",
    "icao": "YBAS",
    "direct_flights": "8",
    "carriers": "3"
    }
},
  {
    "type": "Feature","geometry": {"type": "Point","coordinates": [35.4939,38.7708]},
    "properties": { "code": "ASR",
    "name": "Erkilet Airport",
    "city": "Kayseri",
    "state": "Kayseri",
    "country": "Turkey",
    "woeid": "12517886",
    "tz": "Europe\/Istanbul",
    "type": "Airports",
    "runway_length": "5500",
    "elev": "3571",
    "icao": "LTAU",
    "direct_flights": "7",
    "carriers": "2"
    }
},
  {
    "type": "Feature","geometry": {"type": "Point","coordinates": [-57.5189,-25.2397]},
    "properties": { "code": "ASU",
    "name": "Silvio Pettirossi International Airport",
    "city": "Colonia Mariano Roque Alonso",
    "state": "Central",
    "country": "Paraguay",
    "woeid": "12515187",
    "tz": "America\/Asuncion",
    "type": "Airports",
    "runway_length": "11000",
    "elev": "292",
    "icao": "SGAS",
    "direct_flights": "9",
    "carriers": "8"
    }
},
  {
    "type": "Feature","geometry": {"type": "Point","coordinates": [37.25,-2.63333]},
    "properties": { "code": "ASV",
    "name": "Amboseli",
    "city": "Amboseli",
    "state": "Rift Valley",
    "country": "Kenya",
    "woeid": "1528663",
    "tz": "Africa\/Nairobi",
    "type": "Airports",
    "runway_length": "3281",
    "elev": "3755",
    "icao": "HKAM",
    "direct_flights": "1",
    "carriers": "1"
    }
},
  {
    "type": "Feature","geometry": {"type": "Point","coordinates": [32.8217,23.965]},
    "properties": { "code": "ASW",
    "name": "Aswan Airport",
    "city": "Aswan",
    "state": "Aswan",
    "country": "Egypt",
    "woeid": "12512666",
    "tz": "Africa\/Cairo",
    "type": "Airports",
    "runway_length": "11155",
    "elev": "656",
    "icao": "HESN",
    "direct_flights": "5",
    "carriers": "1"
    }
},
  {
    "type": "Feature","geometry": {"type": "Point","coordinates": [33.9833,17.7]},
    "properties": { "code": "ATB",
    "name": "Atbara",
    "city": "Atbara",
    "state": "Nahr an Nil",
    "country": "Sudan",
    "woeid": "1431005",
    "tz": "Africa\/Khartoum",
    "type": "Airports",
    "runway_length": "5905",
    "elev": "1181",
    "icao": "HSAT",
    "direct_flights": "1",
    "carriers": "1"
    }
},
  {
    "type": "Feature","geometry": {"type": "Point","coordinates": [-75.6734,24.6287]},
    "properties": { "code": "ATC",
    "name": "Arthur's Town Airport",
    "city": "Arthur Town",
    "state": "Cat Island",
    "country": "Bahamas",
    "woeid": "12524017",
    "tz": "America\/Nassau",
    "type": "Airports",
    "runway_length": null,
    "elev": null,
    "icao": "MYCA",
    "direct_flights": "1",
    "carriers": "1"
    }
},
  {
    "type": "Feature","geometry": {"type": "Point","coordinates": [161.033,-8.86667]},
    "properties": { "code": "ATD",
    "name": "Atoifi",
    "city": "Atoifi",
    "state": "Malaita",
    "country": "Solomon Islands",
    "woeid": "1020493",
    "tz": "Pacific\/Noumea",
    "type": "Airports",
    "runway_length": "1968",
    "elev": null,
    "icao": "",
    "direct_flights": "1",
    "carriers": "1"
    }
},
  {
    "type": "Feature","geometry": {"type": "Point","coordinates": [23.7235,37.8937]},
    "properties": { "code": "ATH",
    "name": "Eleftherios Venizelos International Airport",
    "city": "Athens",
    "state": "Attiki",
    "country": "Greece",
    "woeid": "12513286",
    "tz": "Europe\/Athens",
    "type": "Airports",
    "runway_length": "13123",
    "elev": "308",
    "icao": "LGAV",
    "direct_flights": "117",
    "carriers": "81"
    }
},
  {
    "type": "Feature","geometry": {"type": "Point","coordinates": [-157.331,70.4639]},
    "properties": { "code": "ATK",
    "name": "Atqasuk Airport",
    "city": "Atqasuk",
    "state": "Alaska",
    "country": "United States",
    "woeid": "12524564",
    "tz": "America\/Anchorage",
    "type": "Airports",
    "runway_length": "1250",
    "elev": "65",
    "icao": "PATQ",
    "direct_flights": "2",
    "carriers": "1"
    }
},
  {
    "type": "Feature","geometry": {"type": "Point","coordinates": [-84.4333,33.6558]},
    "properties": { "code": "ATL",
    "name": "Hartsfield-Jackson Atlanta International Airport",
    "city": "Atlanta",
    "state": "Georgia",
    "country": "United States",
    "woeid": "12522118",
    "tz": "America\/New_York",
    "type": "Airports",
    "runway_length": "11889",
    "elev": "1026",
    "icao": "KATL",
    "direct_flights": "253",
    "carriers": "60"
    }
},
  {
    "type": "Feature","geometry": {"type": "Point","coordinates": [-52.2517,-3.2506]},
    "properties": { "code": "ATM",
    "name": "Altamira Airport",
    "city": "Altamira",
    "state": "Para",
    "country": "Brazil",
    "woeid": "12511018",
    "tz": "America\/Manaus",
    "type": "Airports",
    "runway_length": "6572",
    "elev": "367",
    "icao": "SBHT",
    "direct_flights": "2",
    "carriers": "1"
    }
},
  {
    "type": "Feature","geometry": {"type": "Point","coordinates": [74.7955,31.7131]},
    "properties": { "code": "ATQ",
    "name": "Raja Sansi Airport",
    "city": "Raja Sansi",
    "state": "Punjab",
    "country": "India",
    "woeid": "12513536",
    "tz": "Asia\/Kolkata",
    "type": "Airports",
    "runway_length": "9250",
    "elev": "754",
    "icao": "VIAR",
    "direct_flights": "10",
    "carriers": "10"
    }
},
  {
    "type": "Feature","geometry": {"type": "Point","coordinates": [-13.0436,20.5067]},
    "properties": { "code": "ATR",
    "name": "Atar Airport",
    "city": "Atar",
    "state": "Adrar",
    "country": "Mauritania",
    "woeid": "12514800",
    "tz": "Africa\/Nouakchott",
    "type": "Airports",
    "runway_length": "9843",
    "elev": "758",
    "icao": "GQPA",
    "direct_flights": "2",
    "carriers": "1"
    }
},
  {
    "type": "Feature","geometry": {"type": "Point","coordinates": [-162.276,60.865]},
    "properties": { "code": "ATT",
    "name": "Atmautluak Airport",
    "city": "Atmautluak",
    "state": "Alaska",
    "country": "United States",
    "woeid": "12524566",
    "tz": "America\/Anchorage",
    "type": "Airports",
    "runway_length": "2250",
    "elev": "17",
    "icao": "",
    "direct_flights": "3",
    "carriers": "3"
    }
},
  {
    "type": "Feature","geometry": {"type": "Point","coordinates": [-88.5111,44.2603]},
    "properties": { "code": "ATW",
    "name": "Outagamie County Airport",
    "city": "Appleton",
    "state": "Wisconsin",
    "country": "United States",
    "woeid": "12521262",
    "tz": "America\/Chicago",
    "type": "Airports",
    "runway_length": "7001",
    "elev": "918",
    "icao": "KATW",
    "direct_flights": "8",
    "carriers": "11"
    }
},
  {
    "type": "Feature","geometry": {"type": "Point","coordinates": [-97.1609,44.9216]},
    "properties": { "code": "ATY",
    "name": "Watertown Municipal Airport",
    "city": "Watertown",
    "state": "South Dakota",
    "country": "United States",
    "woeid": "12522349",
    "tz": "America\/Chicago",
    "type": "Airports",
    "runway_length": "6895",
    "elev": "1748",
    "icao": "KATY",
    "direct_flights": "3",
    "carriers": "4"
    }
},
  {
    "type": "Feature","geometry": {"type": "Point","coordinates": [31.0114,27.0411]},
    "properties": { "code": "ATZ",
    "name": "Asyut Airport",
    "city": "Asyut",
    "state": "Asyut",
    "country": "Egypt",
    "woeid": "12512667",
    "tz": "Africa\/Cairo",
    "type": "Airports",
    "runway_length": "9843",
    "elev": "774",
    "icao": "HEAT",
    "direct_flights": "5",
    "carriers": "5"
    }
},
  {
    "type": "Feature","geometry": {"type": "Point","coordinates": [-70.0139,12.5022]},
    "properties": { "code": "AUA",
    "name": "Reina Beatrix International Airport",
    "city": "Aruba",
    "state": "",
    "country": "Aruba",
    "woeid": "12510298",
    "tz": "America\/Aruba",
    "type": "Airports",
    "runway_length": "9000",
    "elev": "59",
    "icao": "TNCA",
    "direct_flights": "25",
    "carriers": "24"
    }
},
  {
    "type": "Feature","geometry": {"type": "Point","coordinates": [-70.7406,7.0703]},
    "properties": { "code": "AUC",
    "name": "Santiago Perez Airport",
    "city": "Arauca",
    "state": "Caldas",
    "country": "Colombia",
    "woeid": "12512414",
    "tz": "America\/Bogota",
    "type": "Airports",
    "runway_length": "6888",
    "elev": "400",
    "icao": "SKUC",
    "direct_flights": "2",
    "carriers": "2"
    }
},
  {
    "type": "Feature","geometry": {"type": "Point","coordinates": [-69.7933,44.3181]},
    "properties": { "code": "AUG",
    "name": "Augusta State Airport",
    "city": "Augusta",
    "state": "Maine",
    "country": "United States",
    "woeid": "12518700",
    "tz": "America\/New_York",
    "type": "Airports",
    "runway_length": "5140",
    "elev": "353",
    "icao": "KAUG",
    "direct_flights": "3",
    "carriers": "1"
    }
},
  {
    "type": "Feature","geometry": {"type": "Point","coordinates": [54.6489,24.4331]},
    "properties": { "code": "AUH",
    "name": "Abu Dhabi International Airport",
    "city": "Abu Dhabi",
    "state": "Abu Dhabi",
    "country": "United Arab Emirates",
    "woeid": "12517727",
    "tz": "Asia\/Dubai",
    "type": "Airports",
    "runway_length": "10499",
    "elev": "15",
    "icao": "OMAA",
    "direct_flights": "76",
    "carriers": "45"
    }
},
  {
    "type": "Feature","geometry": {"type": "Point","coordinates": [-164.633,62.6833]},
    "properties": { "code": "AUK",
    "name": "Alakanuk Airport",
    "city": "Alakanuk",
    "state": "Alaska",
    "country": "United States",
    "woeid": "12524567",
    "tz": "America\/Anchorage",
    "type": "Airports",
    "runway_length": "2400",
    "elev": "10",
    "icao": "",
    "direct_flights": "3",
    "carriers": "2"
    }
},
  {
    "type": "Feature","geometry": {"type": "Point","coordinates": [-139.015,-9.7719]},
    "properties": { "code": "AUQ",
    "name": "Atuona Airport",
    "city": "Atuona",
    "state": "Marquesas Islands",
    "country": "French Polynesia",
    "woeid": "12523068",
    "tz": "Pacific\/Midway",
    "type": "Airports",
    "runway_length": "3691",
    "elev": "1473",
    "icao": "",
    "direct_flights": "4",
    "carriers": "1"
    }
},
  {
    "type": "Feature","geometry": {"type": "Point","coordinates": [2.41982,44.8984]},
    "properties": { "code": "AUR",
    "name": "Aurillac Airport",
    "city": "Aurillac",
    "state": "Auvergne",
    "country": "France",
    "woeid": "12512848",
    "tz": "Europe\/Paris",
    "type": "Other Airport",
    "runway_length": "5577",
    "elev": "2096",
    "icao": "LFLW",
    "direct_flights": "1",
    "carriers": "1"
    }
},
  {
    "type": "Feature","geometry": {"type": "Point","coordinates": [-97.6653,30.2027]},
    "properties": { "code": "AUS",
    "name": "Austin-Bergstrom International Airport",
    "city": "Austin",
    "state": "Texas",
    "country": "United States",
    "woeid": "23418445",
    "tz": "America\/Chicago",
    "type": "Airports",
    "runway_length": "12248",
    "elev": "542",
    "icao": "KAUS",
    "direct_flights": "50",
    "carriers": "37"
    }
},
  {
    "type": "Feature","geometry": {"type": "Point","coordinates": [-48.2403,-7.2281]},
    "properties": { "code": "AUX",
    "name": "Araguaina Airport",
    "city": "Araguaina",
    "state": "Norte",
    "country": "Brazil",
    "woeid": "12511029",
    "tz": "America\/Araguaina",
    "type": "Airports",
    "runway_length": "5905",
    "elev": "771",
    "icao": "",
    "direct_flights": "3",
    "carriers": "2"
    }
},
  {
    "type": "Feature","geometry": {"type": "Point","coordinates": [169.825,-20.1909]},
    "properties": { "code": "AUY",
    "name": "Vanuatu",
    "city": "Aneityum",
    "state": "Tafea",
    "country": "Vanuatu",
    "woeid": "23424907",
    "tz": "Pacific\/Efate",
    "type": "Airports",
    "runway_length": "2001",
    "elev": "10",
    "icao": "",
    "direct_flights": "1",
    "carriers": "1"
    }
},
  {
    "type": "Feature","geometry": {"type": "Point","coordinates": [-82.5373,35.4349]},
    "properties": { "code": "AVL",
    "name": "Asheville Regional Airport",
    "city": "Fletcher",
    "state": "North Carolina",
    "country": "United States",
    "woeid": "12518672",
    "tz": "America\/New_York",
    "type": "Airports",
    "runway_length": "8001",
    "elev": "2165",
    "icao": "KAVL",
    "direct_flights": "7",
    "carriers": "10"
    }
},
  {
    "type": "Feature","geometry": {"type": "Point","coordinates": [4.89951,43.9056]},
    "properties": { "code": "AVN",
    "name": "Avignon-Caumont Airport",
    "city": "Avignon",
    "state": "Provence-alpes-cote d'Azur",
    "country": "France",
    "woeid": "12523803",
    "tz": "Europe\/Paris",
    "type": "Airports",
    "runway_length": "4593",
    "elev": "118",
    "icao": "LFMV",
    "direct_flights": "4",
    "carriers": "2"
    }
},
  {
    "type": "Feature","geometry": {"type": "Point","coordinates": [-75.7294,41.3354]},
    "properties": { "code": "AVP",
    "name": "Wilkes Barre Scranton International Airport",
    "city": "Pittston",
    "state": "Pennsylvania",
    "country": "United States",
    "woeid": "12522441",
    "tz": "America\/New_York",
    "type": "Airports",
    "runway_length": "7501",
    "elev": "957",
    "icao": "KAVP",
    "direct_flights": "8",
    "carriers": "8"
    }
},
  {
    "type": "Feature","geometry": {"type": "Point","coordinates": [160.417,-9.85]},
    "properties": { "code": "AVU",
    "name": "Avu Avu",
    "city": "Avu Avu",
    "state": "Guadalcanal",
    "country": "Solomon Islands",
    "woeid": "1020506",
    "tz": "Pacific\/Guadalcanal",
    "type": "Airports",
    "runway_length": "2210",
    "elev": "8",
    "icao": "",
    "direct_flights": "1",
    "carriers": "1"
    }
},
  {
    "type": "Feature","geometry": {"type": "Point","coordinates": [144.468,-38.0408]},
    "properties": { "code": "AVV",
    "name": "Avalon Airport",
    "city": "Lara",
    "state": "Victoria",
    "country": "Australia",
    "woeid": "12510591",
    "tz": "Australia\/Melbourne",
    "type": "Other Airport",
    "runway_length": "10000",
    "elev": "34",
    "icao": "YMAV",
    "direct_flights": "4",
    "carriers": "2"
    }
},
  {
    "type": "Feature","geometry": {"type": "Point","coordinates": [142.75,-8.01667]},
    "properties": { "code": "AWB",
    "name": "Awaba",
    "city": "Awaba",
    "state": "",
    "country": "Papua New Guinea",
    "woeid": "23424926",
    "tz": "Pacific\/Port_Moresby",
    "type": "Airports",
    "runway_length": "2300",
    "elev": null,
    "icao": "",
    "direct_flights": "2",
    "carriers": "1"
    }
},
  {
    "type": "Feature","geometry": {"type": "Point","coordinates": [169.598,-19.2501]},
    "properties": { "code": "AWD",
    "name": "Aniwa Airport",
    "city": "Aniwa",
    "state": "Tafea",
    "country": "Vanuatu",
    "woeid": "12515050",
    "tz": "Pacific\/Efate",
    "type": "Airports",
    "runway_length": "3085",
    "elev": "69",
    "icao": "NVVB",
    "direct_flights": "1",
    "carriers": "1"
    }
},
  {
    "type": "Feature","geometry": {"type": "Point","coordinates": [48.7597,31.3378]},
    "properties": { "code": "AWZ",
    "name": "Ahvaz Airport",
    "city": "Ahvaz",
    "state": "Khuzestan",
    "country": "Iran",
    "woeid": "12513699",
    "tz": "Asia\/Tehran",
    "type": "Airports",
    "runway_length": "11100",
    "elev": "60",
    "icao": "OIAW",
    "direct_flights": "7",
    "carriers": "6"
    }
},
  {
    "type": "Feature","geometry": {"type": "Point","coordinates": [-63.0575,18.2103]},
    "properties": { "code": "AXA",
    "name": "Wallblake Airport",
    "city": "Anguilla",
    "state": "The Valley",
    "country": "Anguilla",
    "woeid": "12510830",
    "tz": "America\/Anguilla",
    "type": "Airports",
    "runway_length": "3600",
    "elev": "108",
    "icao": "TQPF",
    "direct_flights": "5",
    "carriers": "4"
    }
},
  {
    "type": "Feature","geometry": {"type": "Point","coordinates": [25.9567,40.8567]},
    "properties": { "code": "AXD",
    "name": "Alexandroupolis Airport",
    "city": "Alexandroupolis",
    "state": "Anatoliki Makedonia",
    "country": "Greece",
    "woeid": "12513282",
    "tz": "Europe\/Athens",
    "type": "Airports",
    "runway_length": "8530",
    "elev": "24",
    "icao": "LGAL",
    "direct_flights": "2",
    "carriers": "2"
    }
},
  {
    "type": "Feature","geometry": {"type": "Point","coordinates": [-75.7681,4.4564]},
    "properties": { "code": "AXM",
    "name": "El Eden Airport",
    "city": "La Tebaida",
    "state": "Quindio",
    "country": "Colombia",
    "woeid": "12512374",
    "tz": "America\/Bogota",
    "type": "Airports",
    "runway_length": "7825",
    "elev": "3960",
    "icao": "SKAR",
    "direct_flights": "2",
    "carriers": "4"
    }
},
  {
    "type": "Feature","geometry": {"type": "Point","coordinates": [-73.9775,22.4441]},
    "properties": { "code": "AXP",
    "name": "Spring Point Airport",
    "city": "Spring Point",
    "state": "Acklins",
    "country": "Bahamas",
    "woeid": "12510881",
    "tz": "America\/Nassau",
    "type": "Airports",
    "runway_length": "5000",
    "elev": "11",
    "icao": "MYAP",
    "direct_flights": "2",
    "carriers": "1"
    }
},
  {
    "type": "Feature","geometry": {"type": "Point","coordinates": [-146.538,-15.5098]},
    "properties": { "code": "AXR",
    "name": "French Polynesia",
    "city": "Arutua",
    "state": "Tuamotu-Gambier",
    "country": "French Polynesia",
    "woeid": "23424817",
    "tz": "Pacific\/Midway",
    "type": "Airports",
    "runway_length": "2230",
    "elev": "7",
    "icao": "NTGU",
    "direct_flights": "4",
    "carriers": "1"
    }
},
  {
    "type": "Feature","geometry": {"type": "Point","coordinates": [140.219,39.6153]},
    "properties": { "code": "AXT",
    "name": "Akita Airport",
    "city": "Akita-shi",
    "state": "Akita Prefecture",
    "country": "Japan",
    "woeid": "12513940",
    "tz": "Asia\/Tokyo",
    "type": "Airports",
    "runway_length": "8200",
    "elev": "313",
    "icao": "RJSK",
    "direct_flights": "7",
    "carriers": "5"
    }
},
  {
    "type": "Feature","geometry": {"type": "Point","coordinates": [38.7726,14.147]},
    "properties": { "code": "AXU",
    "name": "Axum",
    "city": "Axum",
    "state": "Tigray",
    "country": "Ethiopia",
    "woeid": "1313280",
    "tz": "Africa\/Addis_Ababa",
    "type": "Airports",
    "runway_length": "5347",
    "elev": "7000",
    "icao": "HAAX",
    "direct_flights": "3",
    "carriers": "1"
    }
},
  {
    "type": "Feature","geometry": {"type": "Point","coordinates": [130.977,-25.1872]},
    "properties": { "code": "AYQ",
    "name": "Ayers Rock Airport",
    "city": "Ayers Rock",
    "state": "Northern Territory",
    "country": "Australia",
    "woeid": "12510821",
    "tz": "Australia\/Darwin",
    "type": "Airports",
    "runway_length": "6560",
    "elev": "1626",
    "icao": "YAYE",
    "direct_flights": "5",
    "carriers": "2"
    }
},
  {
    "type": "Feature","geometry": {"type": "Point","coordinates": [30.7917,36.9022]},
    "properties": { "code": "AYT",
    "name": "Antalya Airport",
    "city": "Antalya",
    "state": "Antalya",
    "country": "Turkey",
    "woeid": "12517869",
    "tz": "Europe\/Istanbul",
    "type": "Airports",
    "runway_length": "11243",
    "elev": "167",
    "icao": "LTAI",
    "direct_flights": "51",
    "carriers": "24"
    }
},
  {
    "type": "Feature","geometry": {"type": "Point","coordinates": [-111.656,33.3078]},
    "properties": { "code": "AZA",
    "name": "Phoenix-Mesa Gateway Airport",
    "city": "Phoenix",
    "state": "Arizona",
    "country": "United States",
    "woeid": "2449808",
    "tz": "America\/Phoenix",
    "type": "Airports",
    "runway_length": "10",
    "elev": "1",
    "icao": "KIWA",
    "direct_flights": "8",
    "carriers": "1"
    }
},
  {
    "type": "Feature","geometry": {"type": "Point","coordinates": [54.2786,31.905]},
    "properties": { "code": "AZD",
    "name": "Yazd Airport",
    "city": "Yezd",
    "state": "Yazd",
    "country": "Iran",
    "woeid": "12513771",
    "tz": "Asia\/Tehran",
    "type": "Airports",
    "runway_length": "8530",
    "elev": "4066",
    "icao": "OIYY",
    "direct_flights": "2",
    "carriers": "3"
    }
},
  {
    "type": "Feature","geometry": {"type": "Point","coordinates": [72.2931,40.7324]},